Name,ID,English name,Region,Building type,Categories,Activities,Features,Architect(s),Builder,Century,Year built,Rebuilt year,Architectural style,Wikipedia link,Website,Instagram,Map link,Latitude,Longitude,WP Post ID
Adelsnäs säteri,adelsnas-sateri,Adelsnäs Manor,Östergötland,Manor,Sports & Recreation,Hunting|Fishing,,Isak Gustaf Clason,Theodor Adelswärd,20th Century,1916,,National Romantic,https://sv.wikipedia.org/wiki/Adelsnäs,https://www.baroniet.se/,,https://maps.app.goo.gl/vewEEfoA1hd4zk6R6,58.188462550588206,15.989637239890646,
Alnarps slott,alnarps-slott,Alnarp Castle,Skåne,Manor,Gardens & Parks|Sports & Recreation,Sightseeing,,Ferdinand Meldahl,King Oscar I,19th Century,1859,,French Renaissance Revival,https://sv.wikipedia.org/wiki/Alnarps_slott,https://www.slu.se/om-slu/besok-slu/vara-besoksmal/alnarpsparken/,,https://maps.app.goo.gl/NKvPLGGiiA83hEDWA,55.65481449152127,13.078973968917293,
Alsnö hus,alsno-hus,Alsnö House,Uppland,Ruin,History & Culture,Sightseeing,,,King Magnus Ladulås,13th Century,1270,,,https://sv.wikipedia.org/wiki/Alsnö_hus,https://historiska.se/utforska-historien/kunskapsbank/alsno-hus-ett-medeltida-palats/,,https://maps.app.goo.gl/NKvPLGGiiA83hEDWA,59.36083342947104,17.535505999824938,
Alsters herrgård,alsters-herrgard,Alster Manor,Värmland,Manor,Food & Drink|History & Culture,,,Johan Fredrik Åbom,Jan Fröding,18th Century,1772,1830,Neoclassical,https://sv.wikipedia.org/wiki/Alsters_herrgård,https://karlstad.se/alsters-herrgard/,,https://maps.app.goo.gl/ashDiFG1KjHPWF748,59.398217700384926,13.602670130168427,
Asa herrgård,asa-herrgard,Asa Manor,Småland,Manor,Food & Drink|Weddings|Accommodation|Sports & Recreation,,,,Gustaf Leijonhufvud,18th Century,1793,,,https://sv.wikipedia.org/wiki/Asa_herrgård,https://www.asaherrgard.se/,,https://maps.app.goo.gl/8PDfFwKBR6cVfp6V8,57.16470728313681,14.784433764423547,
Aspa herrgård,aspa-herrgard,Aspa Manor,Närke,Manor,Food & Drink|Accommodation,,,,,18th Century,1740,,,"https://sv.wikipedia.org/wiki/Aspa,_Askersunds_kommun",https://aspaherrgard.se/,,https://maps.app.goo.gl/NGeoFkFACyMLYeg5A,58.776245610322285,14.804345158967504,
Aspenäs herrgård,aspenas-herrgard,Aspenäs Manor,Västergötland,Manor,Food & Drink|Weddings|Accommodation,,,,Johan Jacob von Holten,19th Century,1834,,,https://sv.wikipedia.org/wiki/Aspenäs_herrgård,https://aspenasherrgard.se/,,https://maps.app.goo.gl/4GFvZqSS8HMirajf7,57.77559257323661,12.233982256515487,
Baldersnäs herrgård,baldersnas-herrgard,Baldersnäs Manor,Dalsland,Manor,Weddings|Accommodation,,,Frans Ekelund,,20th Century,1910,,,https://sv.wikipedia.org/wiki/Baldersnäs,https://www.baldersnas.eu/,,https://maps.app.goo.gl/Z4mUFPcfQZsStMiFA,58.963464843781466,12.277760939392158,
Balingsholm herrgård,balingsholm-herrgard,Balingsholm Manor,Södermanland,Manor,Accommodation,,,Erik Lundroth,,20th Century,1906,,,https://sv.wikipedia.org/wiki/Balingsholm,https://www.balingsholm.se/,,https://maps.app.goo.gl/hyQXc9gZaGF23Zbr5,59.22613579482613,18.028650935707844,
Beckershofs herrgård,beckershofs-herrgard,Beckershof Manor,Södermanland,Manor,Accommodation|Sports & Recreation,,,Carl Christoffer Gjörwell,"Martin Arfwedson, Mauritz Lewenhaupt",19th Century,1819,1867,,https://sv.wikipedia.org/wiki/Beckershov,http://www.beckershof.se/,,https://maps.app.goo.gl/vDVc3EJUyVM3UqBz9,58.94779463557126,16.028709296571407,
Bergendals herrgård,bergendals-herrgard,Bergendal Manor,Uppland,Manor,Food & Drink|Weddings,,,Francois Priffé,,20th Century,1913,,National Romantic,https://sv.wikipedia.org/wiki/Bergendals_herrgård,https://www.bergendal.se/,,https://maps.app.goo.gl/B6jxPUmMc37NhUo58,59.43036079230352,17.983183478852066,
Bergsjöholms slott,bergsjoholms-slott,Bergsjöholm Manor,Skåne,Manor,Sports & Recreation,,,Ferdinand Meldahl (restoration),Björn Kaas,,,1849,Historicism,https://sv.wikipedia.org/wiki/Bjärsjöholms_slott,https://bergsjoholm.com/,,https://maps.app.goo.gl/qhc4XWfhMyjDbW3P8,55.450959955300604,13.777526265222148,
Bjertorp slott,bjertorps-slott,Bjertorp Manor,Västergötland,Manor,Food & Drink|Weddings|Accommodation|Sports & Recreation,,,Ferdinand Boberg,Knut Henrik Littorin,20th Century,1911,,Art Nouveau (Jugend),https://sv.wikipedia.org/wiki/Bjertorp_slott,https://bjertorpslott.se/,,https://maps.app.goo.gl/Wpc3jpBf5zYkRPvt6,58.26465993671098,13.113478068466016,
Bjärka-Säby slott,bjarka-saby-slott,Bjärka-Säby Manor,Östergötland,Manor,Weddings|Conferences & Events,,,,Per Nilsson Natt och Dag,17th Century,1632,,,https://sv.wikipedia.org/wiki/Bjärka-Säby_slott,http://bjarka-saby.se/,,https://maps.app.goo.gl/xhvDSChy1SuobjJB6,58.26868143215452,15.739114037052872,
Bjärsjölagårds slott,bjarsjolagards-slott,Bjärsjölagård Manor,Skåne,Manor,Food & Drink|Weddings|Accommodation,,,Jean Eric Rehn,,18th Century,1770,,,https://sv.wikipedia.org/wiki/Bjärsjölagårds_slott,http://bjarsjolagardsslott.se/,,https://maps.app.goo.gl/v48oic1Vkve7kd9u8,55.726273434182396,13.69943984194523,
Björka säteri,bjorka-sateri,Björka Manor,Småland,Manor,Sports & Recreation,,,,,17th Century,1625,,,,http://www.bjorkasateri.se/,,https://maps.app.goo.gl/ao7eRKiviV8YiP1W7,57.82183053817736,16.06979684996007,
Björnö slott,bjorno-slott,Björnö Manor,Småland,Manor,Weddings,,,Carl Otto Posse,,19th Century,1850,,Empire,"https://sv.wikipedia.org/wiki/Björnö,_Kalmar_kommun",https://bjornoslott.se/,,https://maps.app.goo.gl/nNRukF8rcRcBb19b9,56.770912465252835,16.38522190521414,
Blekhems egendom,blekhems-egendom,Blekhem Manor,Småland,Manor,Sports & Recreation,,,,Johan Nordenfalk,19th Century,1838,,Empire,https://sv.wikipedia.org/wiki/Blekhem,https://www.blekhem.se,,https://maps.app.goo.gl/W1UJZydYuYWSsV4JA,57.822943584802985,16.428328922974263,
Bogesunds slott,bogesunds-slott,Bogesund Castle,Uppland,Castle,History & Culture,,,Thor Medelplan (rebuild),,19th Century,1640,1863,Neo-Gothic,https://sv.wikipedia.org/wiki/Bogesunds_slott,http://www.bogesundsslott.se/,,https://maps.app.goo.gl/jrou2jcaVPKTuB586,59.39344366189554,18.28454478262966,
Bohus fästning,bohus-fastning,Bohus Fortress,Bohuslän,Fortress,History & Culture,,,Hans van Paeschen & Hans van Steenwinckel d.ä. (rebuild),,14th Century,1308,1584,Renaissance,https://sv.wikipedia.org/wiki/Bohus_fästning,https://www.bohusfastning.com/,,https://maps.app.goo.gl/q53yk3yu1VcHuEB79,57.86138028523296,11.998587340210356,
Bondeska palatset,bondeska-palatset,Bonde Palace,Uppland,Palace,History & Culture,Sightseeing,,Nicodemus Tessin d.ä. & Jean de la Vallée (original); Johan Eberhard Carlberg (rebuild after fire),,17th Century,1662,1753,Baroque,https://sv.wikipedia.org/wiki/Bondeska_palatset,https://www.sfv.se/vara-fastigheter/sverige/stockholms-lan/gamla-stan/bondeska-palatset,,https://maps.app.goo.gl/DTFyYrC2mKHQN7fj6,59.326354801326204,18.066100378920076,
Boo egendom,boo-egendom,Boo Manor,Närke,Manor,Sports & Recreation,,,Johan Fredrik Åbom; Ivar Tengbom (interior),,19th Century,1878,,Neo-Gothic,https://sv.wikipedia.org/wiki/Boo_slott,https://booegendom.se/,,https://maps.app.goo.gl/U4RfDtxL4T6XTgcq7,58.92903511656377,15.527893348817729,
Borgeby slott,borgeby-slott,Borgeby Castle,Skåne,Castle,Food & Drink,,,"Helgo Zettervall (""Börjes torn"" only)",,,980,1875,,https://sv.wikipedia.org/wiki/Borgeby_slott,https://borgebyslott.se/,,https://maps.app.goo.gl/VQU4rXfw1haBaQry5,55.751627161135154,13.036956824742395,
Borgholms slott,borgholms-slott,Borgholm Castle Ruin,Öland,Ruin,Food & Drink|Weddings|History & Culture,,,"Dominicus Pahr (Renaissance rebuild); Nicodemus Tessin d.ä. (Baroque rebuild, uncompleted)",,17th Century,1100,1650,Baroque,https://sv.wikipedia.org/wiki/Borgholms_slottsruin,https://borgholmsslott.se/,,https://maps.app.goo.gl/KC3SsmPgJjRotcLj6,56.87075459173228,16.64408859782421,
Bosjökloster,bosjokloster,Bosjö Abbey,Skåne,Manor,Food & Drink|Weddings|History & Culture,,,Carl Georg Brunius (church restoration); Helgo Zetterwall (residential wings); Leon Nilson (interior),,19th Century,1100,1877,,https://sv.wikipedia.org/wiki/Bosjökloster,https://www.bosjokloster.se/,,https://maps.app.goo.gl/rEuZCGcv369biZhg6,55.87875836891763,13.519784267518096,
Brahehus slottsruin,brahehus-slottsruin,Brahehus Castle Ruin,Småland,Ruin,History & Culture,Sightseeing,,,Per Brahe the Younger,17th Century,1638,,Renaissance,https://sv.wikipedia.org/wiki/Brahehus,,,https://maps.app.goo.gl/wFs8xeSdur8mDFyU7,58.05314894466915,14.50472655556617,
Bro Hof slott,bro-hof-slott,Bro Hof Manor,Uppland,Manor,Food & Drink,,,Herman Holmgren,Johan Claes Eriksson Sparre,19th Century,1888,,Baroque,https://sv.wikipedia.org/wiki/Brogård,http://brohofslottsrestaurang.com/,,https://maps.app.goo.gl/pxt8aLzoULPxpwAe6,59.495965215308956,17.626694337633953,
Brunnbäcks herrgård,brunnbacks-herrgard,Brunnbäck Manor,Dalarna,Manor,Accommodation,,,,,19th Century,1827,,,,https://www.brunnbacksherrgard.se/,,https://maps.app.goo.gl/DN5aLsk3DEiDSsNF8,60.13302141759097,16.255751799769566,
Bäckaskogs slott,backaskogs-slott,Bäckaskog Manor,Skåne,Manor,Food & Drink|Weddings|Accommodation,,,,,17th Century,1241,1584,,https://sv.wikipedia.org/wiki/Bäckaskogs_slott,http://backaskogslott.se/,,https://maps.app.goo.gl/8dayF5y8abx1wvBS9,56.08525969832517,14.349063811270113,
Carlshälls gård,carlshalls-gard,Carlshäll Manor,Södermanland,Manor,Weddings,,,,Carl Modeer,19th Century,1837,1877,,https://sv.wikipedia.org/wiki/Karlshälls_gård,https://www.carlshallsgard.se/,,https://maps.app.goo.gl/uYSLJ4v8cPakq6oM9,59.32208708432906,18.018234067205217,
Carlstens fästning,carlstens-fastning,Carlsten Fortress,Bohuslän,Fortress,Weddings,,,Erik Dahlberg (expansion),,17th Century,1660,1682,,https://sv.wikipedia.org/wiki/Karlstens_fästning,https://carlsten.se/,,https://maps.app.goo.gl/N7N9RTHn2NVhJoGt9,57.88661572864102,11.577895382539618,
Cedergrenska tornet,cedergrenska-tornet,The Cedergren Tower,Uppland,Other,Weddings,,,Ferdinand Boberg & Lars Israel Wahlman (original design); Sven-Olof Larsson (completion/restoration),,19th Century,1896,1996,National Romantic,https://sv.wikipedia.org/wiki/Cedergrenska_tornet,https://cedergrenskatornet.se/,,https://maps.app.goo.gl/25XSs19t5fkrCkKaA,59.380526172291425,18.05598436720729,
Kina slott,kina-slott,The Chinese Pavilion,Uppland,Palace,History & Culture,,,"Carl Fredrik Adelcrantz (stone pavilion, replacing an earlier wooden pavilion); Jean Eric Rehn (interior)",,18th Century,1753,1769,Rococo,https://sv.wikipedia.org/wiki/Kina_slott,https://www.kungligaslotten.se/vara-besoksmal/kina-slott.html,,https://maps.app.goo.gl/8APPyWPDzF7h7x3P9,59.31716462143607,17.878809042150092,
Christinehofs slott,christinehofs-slott,Christinehof Manor,Skåne,Manor,History & Culture,,,Georg Mockelten,Christina Piper,18th Century,1737,,Baroque,https://sv.wikipedia.org/wiki/Christinehofs_slott,https://www.christinehofslott.se/,,https://maps.app.goo.gl/Hr7dTKskTcK7XnuT9,55.718031764212554,13.960634828446025,
Christineholms herrgård,christineholms-herrgard,Christineholm Manor,Södermanland,Manor,Sports & Recreation,,,,,18th Century,1728,,,"https://sv.wikipedia.org/wiki/Kristineholm,_Helgona",https://christineholm.se,,https://maps.app.goo.gl/E7VPBQ2tC8yvAVhc9,58.81135986644087,16.938990859243958,
Claestorps slott,claestorps-slott,Claestorp Manor,Södermanland,Manor,Sports & Recreation,,,Carl Johan Cronstedt,Count Klas Stromberg,18th Century,1754,,,https://sv.wikipedia.org/wiki/Claestorp,https://www.claestorp.se/,,https://maps.app.goo.gl/CLpnCgcQrpBRg3A49,58.96219780665516,16.120750397948232,
Djursholms slott,djursholms-slott,Djursholm Manor,Uppland,Castle,Weddings|Conferences & Events,,,"Erik Lundroth (Dutch Renaissance-revival remodel, later reversed); Klas Fåhraeus (restoration to earlier appearance)",Svante Gustafsson Banér,17th Century,1500,1650,,https://sv.wikipedia.org/wiki/Djursholms_slott,,,https://maps.app.goo.gl/7QgiVngQFRRYftLZ7,59.40132169900048,18.08917404215514,
Drottningholms slott,drottningholms-slott,Drottningholm Palace,Uppland,Palace,Food & Drink|History & Culture,,,Willem Boy; Jean de la Vallée; Nicodemus Tessin d.ä.; Nicodemus Tessin d.y.; Jean Eric Rehn (library); Carl Fredrik Adelcrantz (theatre),,17th Century,1580,1662,Baroque,https://sv.wikipedia.org/wiki/Drottningholms_slott,https://www.kungligaslotten.se/vara-besoksmal/drottningholms-slott/,,https://maps.app.goo.gl/K5eJidVLr8GY9t6G8,59.32175170079197,17.887296022953176,
Dufweholms herrgård,dufweholms-herrgard,Dufweholm Manor,Södermanland,Manor,Food & Drink|Weddings|Spa & Wellness,,,,,18th Century,1721,,,https://sv.wikipedia.org/wiki/Duveholms_herrgård,https://www.dufweholm.se/,,https://maps.app.goo.gl/t7GRsrHA8HPAmBo67,58.9712109900282,16.19208074651583,
Dömle herrgård,domle-herrgard,Dömle Manor,Värmland,Manor,Food & Drink|Weddings|Accommodation|Spa & Wellness,,,,,19th Century,1864,,,https://sv.wikipedia.org/wiki/Dömle_herrgård,https://domle.se/,,https://maps.app.goo.gl/dzMFPoctPG14YwTF6,59.59812567562413,13.423535678858034,
Ekebyhovs slott,ekebyhovs-slott,Ekebyhov Manor,Södermanland,Manor,Food & Drink,,,,,18th Century,1673,,,https://sv.wikipedia.org/wiki/Ekebyhovs_slott,https://www.ekero.se/uppleva-gora/ekebyhovs-slott/,,https://maps.app.goo.gl/7J4i7v1i7TwzL4gDA,59.282791918588586,17.815237257410747,
Ekenäs slott,ekenas-slott,Ekenäs Castle,Östergötland,Castle,Weddings|History & Culture,,,Hans Flemming,"Peder Banér, completed by son Claes Banér",17th Century,1630,,Renaissance,https://sv.wikipedia.org/wiki/Ekenäs_slott,http://ekenasslott.se/,,https://maps.app.goo.gl/ffP5DAxR7B1zfS2x7,58.382108563656494,15.945582511405199,
Eketorps borg,eketorps-borg,Eketorp Fortress,Öland,Fortress,History & Culture,,,Mårten Stenberger and Nils Arne Rosén (reconstruction),Riksantikvarieämbetet (commissioned the reconstruction),3rd Century,300,1984,,https://sv.wikipedia.org/wiki/Eketorps_borg,https://www.eketorpsborg.se,,https://maps.app.goo.gl/p5MdGUjau9AREbjU7,56.29527626262316,16.485854055462813,
Ekolsunds slott,ekolsunds-slott,Ekolsund Castle,Uppland,Castle,Weddings|Food & Drink|Accommodation|Conferences & Events|History & Culture|Spa & Wellness|Gardens & Parks,,,Simon de la Vallée (north wing); Nicodemus Tessin d.ä. (south wing); Carl Hårleman (unifying rebuild and Exedran),,18th Century,1637,1740,Baroque,https://sv.wikipedia.org/wiki/Ekolsunds_slott,http://www.ekolsundsslott.se/,,https://maps.app.goo.gl/8iQLRKHFxmC8zEzw8,59.650617873470644,17.366866297989603,
Eksjöhovgårds slottsruin,eksjohovgards-slottsruin,Eksjöhovgård Castle Ruin,Småland,Ruin,History & Culture,Sightseeing,,,Carl Mauritz Lewenhaupt,17th Century,1650,,,https://sv.wikipedia.org/wiki/Eksjöhovgårds_slottsruin,https://savsjo.se/turism/nyhetsarkiv/nyheter/se-och-gora/2019-04-12-eksjohovgards-slottsruin.html,,https://maps.app.goo.gl/GVnktAk3fWAKnaSi8,57.391900308720665,14.686935840182638,
Elfviks gård,elfviks-gard,Elfvik Manor,Uppland,Manor,Weddings,,,,Petter Widman,19th Century,1775,1811,,https://sv.wikipedia.org/wiki/Elfviks_gård,https://elfviksherrgard.se,,https://maps.app.goo.gl/NfMXfWXMVTVu9wYM6,59.36633334430069,18.248155901592135,
Ellinge slott,ellinge-slott,Ellinge Manor,Skåne,Manor,Weddings|Sports & Recreation,,,Leon Nilsson (restoration),,19th Century,1400,1850,Renaissance,https://sv.wikipedia.org/wiki/Ellinge_slott,https://ellinge.se/,,https://maps.app.goo.gl/4gqPNcHqZ4iQWLcU6,55.8117736755233,13.287382711254176,
Ems herrgård,ems-herrgard,Em Manor,Småland,Manor,Sports & Recreation,,,,,19th Century,1600,1800,,https://sv.wikipedia.org/wiki/Ems_herrgård,https://www.emsherrgard.se,,https://maps.app.goo.gl/YgMqbMc3Cgra2BW79,57.12885562809893,16.497655184321587,
Engsholms slott,engsholms-slott,Engsholm Manor,Södermanland,Manor,Weddings|Accommodation,,,Tore E:son Lindberg,Philip Wersén,20th Century,1916,,National Romantic,https://sv.wikipedia.org/wiki/Ängsholm,https://www.engsholm.se/,,https://maps.app.goo.gl/RUHu5GdfhMdKAJtt6,59.068321635162,17.666866882754164,
Ericsbergs slott,ericsbergs-slott,Ericsberg Manor,Södermanland,Manor,Sports & Recreation,,,"Possibly Nicodemus Tessin d.ä., Jean de la Vallée, or Mathias Spihler (sources disagree); Isak Gustaf Clason (restoration)",,17th Century,1650,,Baroque,https://sv.wikipedia.org/wiki/Ericsbergs_slott,http://www.ericsberg.se/,,https://maps.app.goo.gl/PzbpcKUYDAVwMfdt8,58.93269414234362,16.378783199799223,
Fiholm (Västmanland),fiholm-vastmanland,Fiholm Manor,Västmanland,Manor,Weddings|Conferences & Events,,,Johan Sebastian af Uhr,Carl Johan Ridderstolpe,18th Century,1772,,Gustavian,"https://sv.wikipedia.org/wiki/Fiholm,_Västmanland",https://www.fiholm.net/,,https://maps.app.goo.gl/DzbaTooSWVzM88XY8,59.48934227962967,16.36573935379931,
Finspångs slott,finspangs-slott,Finspång Manor,Södermanland,Manor,Food & Drink,,,Adriaan Dortsman (wings added later),Louis De Geer,17th Century,1668,1742,Dutch Renaissance,https://sv.wikipedia.org/wiki/Finspångs_slott,https://www.finspongsslott.se/,,https://maps.app.goo.gl/7d1uLDU3CSDk2sSB7,58.70974339027679,15.770895970949788,
Fjelldalens slott,fjelldalens-slott,Fjelldalen Manor,Halland,Manor,Weddings,,,Per Lennart Håkansson (rebuild),Ludvig von Segebaden,20th Century,1887,1907,,https://sv.wikipedia.org/wiki/Fjelldalen,https://fjelldalensslott.se/,,https://maps.app.goo.gl/qJvZdgd4QayhRwSw9,56.72452153128253,12.721644832729726,
Fredensborgs herrgård,fredensborgs-herrgard,Fredensborg Manor,Småland,Manor,Food & Drink|Weddings|Accommodation,,,Hugo Hammarskjöld,Axel Tillberg,19th Century,1875,,Swiss Chalet Style,https://sv.wikipedia.org/wiki/Fredensborgs_herrgård,https://www.fredensborg.com/,,https://maps.app.goo.gl/v5mWKHwNoeKwc7HP9,57.57633822476176,15.806420688036715,
Fredriksbergs herrgård,fredriksbergs-herrgard,Fredriksberg Manor,Småland,Manor,History & Culture,,,,Peter Reinke Cederbaum,18th Century,1783,,Gustavian,https://sv.wikipedia.org/wiki/Fredriksbergs_herrgård,http://herrgardskoket.se/,,https://maps.app.goo.gl/VEb15rhieRWqyzgLA,57.26967598487757,16.42744609596945,
Fredriksborgs fästning,fredriksborgs-fastning,Fredriksborg Fortress,Södermanland,Fortress,Weddings|Accommodation,,,Gabriel Cronstedt (fortification design); Carl Hårleman (barracks building),,18th Century,1724,,,https://sv.wikipedia.org/wiki/Fredriksborgs_fästning,https://www.fredriksborghotel.se/,,https://maps.app.goo.gl/LJo2F7hcu5mVE64y6,59.40087782173549,18.44239303731107,
Fredriksdals herrgård,fredriksdals-herrgard,Fredriksdal Manor,Skåne,Manor,History & Culture,,,,Fredrik Wilhelm Cöster,18th Century,1787,,Gustavian,https://sv.wikipedia.org/wiki/Fredriksdals_herrgård,https://fredriksdal.se/,,https://maps.app.goo.gl/SjrWgmq4RtMTB8P69,56.056804070600386,12.713400862848822,
Fulltofta slott,fulltofta-slott,Fulltofta Manor,Skåne,Manor,Weddings,,,,Vivika Charlotta Trolle and Peter Axel Dahl,19th Century,1848,,Neoclassical,,https://www.fulltoftaslott.se/,,https://maps.app.goo.gl/44qLx4uEvAFVMG476,55.877880086630924,13.623004253593443,
Fållnäs gård,fallnas-gard,Fållnäs Manor,Södermanland,Manor,Sports & Recreation,,,Erik Palmstedt,Carl Göran Bonde,18th Century,1780,,,https://sv.wikipedia.org/wiki/Fållnäs,https://fallnas.se,,https://maps.app.goo.gl/d5n7v94eF48jhTgb8,58.95796415966373,17.767442390478426,
Färna herrgård,farna-herrgard,Färna Manor,Västmanland,Manor,Food & Drink|Accommodation|Spa & Wellness,,,,Jacob Ramsell; Carl Johan von Hermansson (rebuild),19th Century,1776,1857,,,https://farnaherrgard.se/,,https://maps.app.goo.gl/BzwoqSbXiKn1Vp318,59.779259678122294,15.86487344208555,
Garpenbergs slott,garpenbergs-slott,Garpenberg Manor,Dalarna,Manor,Food & Drink|Weddings|Accommodation,,,Carl Christoffer Gjörwell,Salomon von Stockenström,19th Century,1801,,Empire,https://sv.wikipedia.org/wiki/Garpenbergs_herrgård,https://www.garpenbergsslott.se/,,https://maps.app.goo.gl/FX6XwwifPJk9vvoh6,60.28330408818943,16.203741669089304,
Gimo herrgård,gimo-herrgard,Gimo Manor,Uppland,Manor,Food & Drink|Accommodation|Spa & Wellness,,,Jean Eric Rehn,Robert Finlay and Jean Henri Le Febure,18th Century,1767,,Gustavian,https://sv.wikipedia.org/wiki/Gimo_herrgård,http://www.gimoherrgard.se/,,https://maps.app.goo.gl/HDSDQRpSA3YsHWiF9,60.178401878003655,18.174016889977974,
Glimmingehus,glimmingehus,Glimmingehus,Skåne,Castle,History & Culture,,,Adam van Düren,Jens Holgersen Ulfstand,15th Century,1499,,,https://sv.wikipedia.org/wiki/Glimmingehus,https://www.raa.se/evenemang-och-upplevelser/upplev-kulturarvet/glimmingehus/,,https://maps.app.goo.gl/i7eS2USQGAr2qwn18,55.500985170528836,14.230870513089021,
Grimsnäs herrgård,grimsnas-herrgard,Grimsnäs Manor,Småland,Manor,Food & Drink,,,,,19th Century,1850,,,,https://www.grimsnas.se/,,https://maps.app.goo.gl/iNR7TX2A1yS2yQee8,56.66913601596878,15.334523351770274,
Gripsholms slott,gripsholms-slott,Gripsholm Castle,Södermanland,Castle,History & Culture,,,"Heinrich (Henrik) von Cöllen, master builder; Fredrik Lilljekvist (restoration)",,16th Century,1537,,Renaissance,https://sv.wikipedia.org/wiki/Gripsholms_slott,https://www.kungligaslotten.se/vara-besoksmal/gripsholms-slott.html,,https://maps.app.goo.gl/JtiUgCJdiUYQWUqcA,59.25626544274333,17.219740876540904,
Gräfsnäs slottsruin,grafsnas-slottsruin,Gräfsnäs Castle Ruin,Småland,Ruin,History & Culture,Sightseeing,,,"Sten Eriksson Leijonhufvud, completed by widow Ebba Månsdotter, from c. 1550; rebuilt in late-Renaissance style 1634–53 under Gustaf Adolf Lewenhaupt",17th Century,1550,1634,Renaissance,https://sv.wikipedia.org/wiki/Gräfsnäs_slott,https://grafsnasslottspark.se/,,https://maps.app.goo.gl/882kGrLydbzbK2Eu5,58.0772979690115,12.497338659273195,
Gränsö slott,granso-slott,Gränsö Manor,Småland,Manor,Food & Drink|Accommodation|Spa & Wellness,,,Olof Johan Risselskiöld,Erik Sparre (rebuild),19th Century,1807,1847,Empire,https://sv.wikipedia.org/wiki/Gränsö_slott,https://www.granso.se/,,https://maps.app.goo.gl/WPhvgrGA5a8PaX1x5,57.760690377774175,16.683445609479218,
Grönsöö slott,gronsoo-slott,Grönsöö Manor,Uppland,Manor,History & Culture,,,"Possibly Hans Fleming; corner towers later demolished, giving the building its simpler current form",Johan Skytte,17th Century,1607,1736,Dutch Renaissance,https://sv.wikipedia.org/wiki/Grönsö_slott,https://gronsoo.se/,,https://maps.app.goo.gl/JnB2ZWAjkMywfEhW7,59.47266100350166,17.248127338798476,
Gunnebo slott,gunnebo-slott,Gunnebo Manor,Västergötland,Manor,Food & Drink|Weddings|History & Culture,,,Carl Wilhelm Carlberg,John Hall,18th Century,1778,,Neoclassical,https://sv.wikipedia.org/wiki/Gunnebo_slott,https://gunneboslott.se/,,https://maps.app.goo.gl/dQP4yqz77stqy8ER8,57.65810202780927,12.059030951532451,
Gustaf III:s paviljong,gustaf-iii-s-paviljong,Gustaf III:s pavillion,Uppland,Palace,History & Culture,,,Olof Tempelman (incorporating the earlier Brahelund manor house); Louis Masreliez (interiors),King Gustaf III,18th Century,1787,,Gustavian,https://sv.wikipedia.org/wiki/Gustav_III:s_paviljong,https://www.kungligaslotten.se/vara-besoksmal/gustav-iiis-paviljong.html,,https://maps.app.goo.gl/e1GbAYRpHkuW7LJk6,59.36273135591158,18.039154470988937,
Gustafsborgs säteri,gustafsborgs-sateri,Gustafsborg Manor,Skåne,Manor,Sports & Recreation,,,,,18th Century,1762,,,https://sv.wikipedia.org/wiki/Gustafsborgs_säteri,https://gustafsborg.se/,,https://maps.app.goo.gl/L9C1H4DgqbH2i6in6,56.10823569614891,13.414628778737127,
Gysinge herrgård,gysinge-herrgard,Gysinge Manor,Gästrikland,Manor,Food & Drink|Accommodation,,,Carl Christoffer Gjörwell,,19th Century,1832,,Gustavian,,https://gysingeherrgard.se/,,https://maps.app.goo.gl/GhdB24o4HEyQvC2M6,60.28835755661652,16.881760530569945,
Gässhult säteri,gasshult-sateri,Gässhult Manor,Småland,Manor,Accommodation|Sports & Recreation,,,,,17th Century,1690,,,https://sv.wikipedia.org/wiki/Gässhults_säteri,https://gasshult.se,,https://maps.app.goo.gl/Ff74LLWDeUVftfRDA,57.45108050977476,16.610556897825447,
Görvälns slott,gorvalns-slott,Görväln Manor,Uppland,Manor,Food & Drink|Weddings|Accommodation,,,Probably Jean de la Vallée,Elsa Elisabeth Brahe,17th Century,1659,,Baroque,https://sv.wikipedia.org/wiki/Görvälns_slott,https://www.gorvalnsslott.se/,,https://maps.app.goo.gl/7oE8tvNj58Yzabcg7,59.43495315577165,17.787324813321035,
Götala herrgård,gotala-herrgard,Götala Manor,Västergötland,Manor,Food & Drink|Weddings,,,,,19th Century,1889,,,https://sv.wikipedia.org/wiki/Götala_kungsgård,https://www.gotalaherrgard.se/,,https://maps.app.goo.gl/AfrXfyLiHcBr5HCx6,58.381465097754905,13.48418162669346,
Haga slott (Enköping),haga-slott-enkoping,Haga Manor,Uppland,Manor,Food & Drink|Weddings|Accommodation,,,Nicodemus Tessin d.ä.,Gustaf Persson (Natt och Dag),17th Century,1660,,Renaissance,"https://sv.wikipedia.org/wiki/Haga_slott,_Enköpings_kommun",https://hagaslott.se/,,https://maps.app.goo.gl/MvDcqh1hsRiguQwg6,59.60435285780473,17.04964205380626,
Hällsnäs herrgåd,hallsnas-herrgard,Hällsnäs Manor,Västergötland,Manor,Accommodation|Food & Drink|Spa & Wellness|Weddings|Conferences & Events,,,,,20th Century,1906,,,,https://hallsnas.se/en/,,https://maps.app.goo.gl/pRLRUYp1TDHWt8Qv9,57.67583920436353,12.18148314575685,
Hallwylska palatset,hallwylska-palatset,Hallwyl Palace,Uppland,Palace,History & Culture,,,Isak Gustaf Clason,,19th Century,1893,,Historicism,https://sv.wikipedia.org/wiki/Hallwylska_museet,http://www.hallwylskamuseet.se/,,https://maps.app.goo.gl/MYxwTZVdrhH2A84i8,59.33312983022589,18.07448875378993,
Halmstad slott,halmstad-slott,Halmstad Castle,Halland,Castle,History & Culture,,,Hans van Steenwinckel d.ä. (design); Willum Cornelissen (completion),,17th Century,1609,,Northern Renaissance,https://sv.wikipedia.org/wiki/Halmstads_slott,,,https://maps.app.goo.gl/Y4EKg9Vtvzynpg7F9,56.6718361640813,12.857941215009804,
Hedenlunda slott,hedenlunda-slott,Hedenlunda Manor,Södermanland,Manor,Weddings|Accommodation|Spa & Wellness,,,Fredrik Wilhelm Hoppe,Helena Magdalena Wrangel,18th Century,1780,,,https://sv.wikipedia.org/wiki/Hedenlunda,https://www.hedenlundaslott.se/,,https://maps.app.goo.gl/aaiB7xHpU6Mo6xKq5,58.992521007528,16.59403167519441,
Hellefors herrgård,hellefors-herrgard,Hellefors Manor,Närke,Manor,Food & Drink,,,,Heikenskjöld family,18th Century,1782,,,,http://www.helleforsherrgard.se/,,https://maps.app.goo.gl/TANj1jDg2Aq4ziM67,59.78534456040265,14.509771265371786,
Hellekis säteri,hellekis-sateri,Hellekis Manor,Västergötland,Manor,Food & Drink,,,Olof Tempelman (remodel),,18th Century,1707,1790,Gustavian,https://sv.wikipedia.org/wiki/Hellekis_säteri,http://www.hellekis.com/,,https://maps.app.goo.gl/5Ztujh4Ts2yH2L8u5,58.618790775236,13.390159564804772,
Hennickehammars herrgård,hennickehammars-herrgard,Hennickehammar Manor,Värmland,Manor,Food & Drink|Weddings|Accommodation|Spa & Wellness,,,,,18th Century,1722,,,https://sv.wikipedia.org/wiki/Hennickehammars_herrgård,https://hennickehammar.se/,,https://maps.app.goo.gl/8Nt4KgSE3YuPqtpv9,59.69397612635903,14.219119548175833,
Hensbacka herrgåd,hensbacka-herrgard,Hensbacka Manor,Bohuslän,Manor,Food & Drink,,,,Lieutenant colonel Lilliehöök,18th Century,1730,1895,Neoclassical,,https://www.hensbacka.com/,,https://maps.app.goo.gl/sChcfXBMBxu7ofVV6,58.437695605050116,11.72247509970969,
Hesselby slott,hesselby-slott,Hesselby Manor,Uppland,Manor,Food & Drink|Weddings|Accommodation,,,Simon de la Vallée; top floor later lost in a fire and never rebuilt,Carl Bonde,17th Century,1650,1721,Baroque,https://sv.wikipedia.org/wiki/Hässelby_slott,https://www.hesselbyslott.se/,,https://maps.app.goo.gl/qNxrhieQvzVuz1wSA,59.365681645980395,17.854962019328582,
Hessensteinska palatset,hessensteinska-palatset,Hessenstein Palace,Uppland,Palace,History & Culture,Sightseeing,,Probably Nicodemus Tessin d.ä. (rebuild),Bengt Bengtsson Oxenstierna,17th Century,1630,1680,Baroque,https://sv.wikipedia.org/wiki/Hessensteinska_palatset,https://www.sfv.se/vara-fastigheter/sverige/stockholms-lan/riddarholmen/hessen-steinska-huset-pa-riddarholmen,,https://maps.app.goo.gl/HPGm8s8JyWrxD4jF6,59.3253559764323,18.0646056402978,
Hildasholm,hildasholm,Hildasholm,Dalarna,Manor,History & Culture|Gardens & Parks,Museum,,,,,,,,,,,,,,
Hjelmsjöborg,hjelmsjoborg,Hjelmsjöborg Manor,Skåne,Manor,Weddings,,,Ola Andersson and Harald Berglin (built in stages),Factory director Hjelm,20th Century,1900,,,,https://www.hjelmsjoborg.com/,,https://maps.app.goo.gl/gfcRGRrkFKxHtN9Z8,56.27386891156943,13.292341816827904,
Hjularöd slott,hjularod-slott,Hjularöd Manor,Skåne,Manor,History & Culture,Sightseeing,,Isak Gustaf Clason and Lars Israel Wahlman (inspired by French medieval castles such as Château de Pierrefonds),Hans Gustaf Toll,19th Century,1894,,Gothic Revival,https://sv.wikipedia.org/wiki/Hjularöds_slott,http://hjularod.se/,,https://maps.app.goo.gl/HNVH1SU52cp1XJRf6,55.73508710312415,13.559041013102611,
Hoby Kulle herrgård,hoby-kulle-herrgard,Hoby Kulle Manor,Blekinge,Manor,Accommodation,,,,Isaac Otto Ruben and Carolina von Rosen,19th Century,1846,,,https://sv.wikipedia.org/wiki/Hoby_Kulle_herrgård,https://hobykulleherrgard.se/,,https://maps.app.goo.gl/Q5cZnCTCtzPUtEbv9,56.21833075663989,15.115247484294523,
Hofmantorps säteri,hofmantorps-sateri,Hofmantorp Manor,Småland,Manor,Sports & Recreation,,,,Bertil Skytte,17th Century,1666,,,,https://hofmantorp.se/,,https://maps.app.goo.gl/m5FyKAJrcDBiiRse7,56.77524144864102,15.122081256029555,
Hofsnäs herrgård,hofsnas-herrgard,Hofsnäs Manor,Västergötland,Manor,Food & Drink,,,,Sigge Sparre,19th Century,1854,1924,,https://sv.wikipedia.org/wiki/Hovsnäs,http://www.hofsnas.se/,,https://maps.app.goo.gl/f477VfS2CQram7Kh6,57.63008582265378,13.292906324817533,
Hooks herrgård,hooks-herrgard,Hook Manor,Småland,Manor,Food & Drink|Accommodation|Spa & Wellness,,,,Claes Henrik Stedt; wings later added under Johan Axel Stedt,18th Century,1778,1787,,https://sv.wikipedia.org/wiki/Hooks_herrgård,https://www.hooksherrgard.se/,,https://maps.app.goo.gl/VdYMqibVtYpSYxg26,57.539332483301905,14.27117847138654,
Hovdala slott,hovdala-slott,Hovdala Castle,Skåne,Castle,Food & Drink|History & Culture,,,,Mats & Björn Laxmand (north wing); Sivert Grubbe (gate tower); Jens Mikkelsen (east wing rebuild),17th Century,1511,1681,,https://sv.wikipedia.org/wiki/Hovdala_slott,http://www.hovdala.se/,,https://maps.app.goo.gl/UDAdLq5NS9X6TRUA7,56.104681656444995,13.713058120535093,
Husby säteri,husby-sateri,Husby Manor,Södermanland,Manor,Weddings|Accommodation,,,,Curt Philip Carl von Schwerin,18th Century,1795,,,https://sv.wikipedia.org/wiki/Husby_säteri,https://www.husbysateri.se/,,https://maps.app.goo.gl/Gw7P6mNJdyjVgogR8,58.45956507041332,16.465813804497657,
Huseby bruk,huseby-bruk,Huseby Manor,Småland,Manor,History & Culture,,,,Hamilton family,19th Century,1844,,,https://sv.wikipedia.org/wiki/Huseby,http://www.husebybruk.se/,,https://maps.app.goo.gl/QMrr19brLc3dzXtC9,56.77883920014571,14.589932267116831,
Hussborgs herrgård,hussborgs-herrgard,Hussborg Manor,Medelpad,Manor,Food & Drink,,,,Sons of provost Johan Huss,19th Century,1850,,,,https://www.hussborg.com/,,https://maps.app.goo.gl/Wb2e8njRMckpaMuY8,62.49737775672614,16.01801613848389,
Hånö säteri,hano-sateri,Hånö Manor,Södermanland,Manor,Sports & Recreation,,,,Henrik Fleming,17th Century,1646,,,https://sv.wikipedia.org/wiki/Hånö,https://www.hanosateri.se,,https://maps.app.goo.gl/jb7M8J7VFRBQzt1m6,58.78338323580808,17.34096503590371,
Håveruds herrgård,haveruds-herrgard,Håverud Manor,Dalsland,Manor,Accommodation,,,,Alexander Theodor Halling,19th Century,1887,,,,https://www.hoverud.com/,,https://maps.app.goo.gl/MRXs28Mym7MXMQMH7,58.82148666225823,12.415551216049657,
Häckeberga slott,hackeberga-slott,Häckeberga Manor,Skåne,Manor,Weddings|Accommodation,,,Helgo Zettervall,Tönnes Wrangel von Brehmer,19th Century,1873,,French Renaissance Revival,https://sv.wikipedia.org/wiki/Häckeberga_slott,https://hackebergaslott.se/,,https://maps.app.goo.gl/v1z6YpTSz8szk3Qr9,55.58041861387186,13.428588087963071,
Häringe slott,haringe-slott,Häringe Manor,Södermanland,Manor,Food & Drink|Weddings|Accommodation,,,Not formally documented,Gustaf Horn,17th Century,1651,,,https://sv.wikipedia.org/wiki/Häringe_slott,https://www.haringeslott.se/sv,,https://maps.app.goo.gl/DWvYj8rLi8afQv9i8,59.03944988260914,18.01423126911673,
Hörle herrgård,horle-herrgard,Hörle Manor,Småland,Manor,Conferences & Events|Weddings,,,Bengt Wilhelm Carlberg; Carl Hårleman (interiors),Anna Margareta Lilliecreutz and Gabriel von Seth,18th Century,1746,,,https://sv.wikipedia.org/wiki/Hörle_herrgård,http://horleherrgard.se/,,https://maps.app.goo.gl/foRppLCKyao1DEEh7,57.26389990504298,14.057660211338938,
Ismantorps borg,ismantorps-borg,Ismantorp Fortress,Öland,Ruin,History & Culture,Sightseeing,,,,3rd Century,200,,,https://sv.wikipedia.org/wiki/Ismantorps_fornborg,https://www.oland.se/ismanstorps-borg,,https://maps.app.goo.gl/z1aKszMTuzyYPmnN6,56.745580071497585,16.64268788432521,
Johannesbergs slott,johannesbergs-slott,Johannesberg,Uppland,Manor,Food & Drink|Weddings|Accommodation|Spa & Wellness,,,,Conti family (rebuild),20th Century,1900,,,https://sv.wikipedia.org/wiki/Johannesbergs_slott,https://www.johannesbergsslott.se/,,https://maps.app.goo.gl/7v8vdyMZChwtdyxq6,59.73619057488632,18.190394755667008,
Johannisborgs slottsruin,johannisborgs-slottsruin,Johannisborg Castle Ruin,Östergötland,Ruin,History & Culture,Sightseeing,,Hans Fleming,Duke Johan of Östergötland,17th Century,1613,,,https://sv.wikipedia.org/wiki/Johannisborg,https://www.sfv.se/vara-fastigheter/sverige/oestergotlands-lan/johannisborgs-slottsruin,,https://maps.app.goo.gl/5RA81ZRAw6Zf5zda9,58.600227821226014,16.197288713270968,
Johannishus slott,johannishus-slott,Johannishus Manor,Blekinge,Manor,Sports & Recreation,,,Carl Fredrik Adelcrantz,Wachtmeister family,18th Century,1770,,Neoclassical,https://sv.wikipedia.org/wiki/Johannishus_slott,https://johannishus.com/,,https://maps.app.goo.gl/qj8S8L7niFbmZExo8,56.244269857612245,15.41565372847656,
Jordberga slott,jordberga-slott,Jordberga Manor,Skåne,Manor,Weddings|Sports & Recreation,,,Iver Krabbe (rebuild); Carl Georg Brunius (remodel); Henri Glaesel (final form),Clara Amalia Stjernswärd,20th Century,1650,1906,Baroque,https://sv.wikipedia.org/wiki/Jordberga_slott,https://www.jordberga.se/,,https://maps.app.goo.gl/GiJyuor9atvYb7BL7,55.41560111144022,13.412633411231363,
Jordhammars herrgård,jordhammars-herrgard,Jordhammar Manor,Bohuslän,Manor,Food & Drink|Weddings,,,,,19th Century,1884,,,,https://jordhammarsherrgard.se/,,https://maps.app.goo.gl/SsGcf4D7nxMAm5899,58.0997129873398,11.84231171134088,
Julita gård,julita-gard,Julita Manor,Södermanland,Manor,History & Culture,,,,,18th Century,1760,,,https://sv.wikipedia.org/wiki/Julita_gård,https://www.nordiskamuseet.se/slott-gardar/julita-gard,,https://maps.app.goo.gl/5Vfez6zwk5j2a1tW8,59.14847451288701,16.044951826795476,
Jädersbruks herrgård,jadersbruks-herrgard,Jädersbruk Manor,Närke,Manor,Food & Drink,,,,Mårten Holmstedt,19th Century,1675,1885,Italianate,https://sv.wikipedia.org/wiki/Jäders_bruk,https://jadersbruk.se/,,https://maps.app.goo.gl/72fZ3R97kbVsTmtx6,59.408847114681535,15.787619682551128,
Kaggeholms slott,kaggeholms-slott,Kaggeholm Manor,Uppland,Manor,Conferences & Events|Sports & Recreation|Accommodation,,,,Isac Funck,18th Century,1720,1850,Rococo,https://sv.wikipedia.org/wiki/Kaggeholm,http://www.kaggeholmsslott.se/,,https://maps.app.goo.gl/LFmc5eLxJUDZCXoAA,59.28359837820399,17.66318141331195,
Kalmar slott,kalmar-slott,Kalmar Castle,Småland,Castle,Food & Drink|Weddings|History & Culture,,,Jacob Richter; Johan Baptista Pahr; Dominicus Pahr; later restorations by Fredrik Wilhelm Scholander and Carl Möller,,16th Century,1200,1545,Renaissance,https://sv.wikipedia.org/wiki/Kalmar_slott,https://kalmarslott.se/,,https://maps.app.goo.gl/DcDYSsUDkDMULgA89,56.658057318474654,16.355451397811784,
Karlbergs slott,karlbergs-slott,Karlberg Palace,Uppland,Palace,History & Culture,Sightseeing,,Hans Drisell (original); Jean de la Vallée (rebuild); Carl Christoffer Gjörwell d.y. (wing expansion),,17th Century,1634,1670,Baroque,https://sv.wikipedia.org/wiki/Karlbergs_slott,https://stockholmslansmuseum.se/besoksmal/karlbergs-slott/,,https://maps.app.goo.gl/xQUd2BHY5jHtC2L2A,59.34121200541939,18.022060113315447,
Karlslunds herrgård,karlslunds-herrgard,Karlslund Manor,Närke,Manor,Food & Drink,,,Johan Gustaf Forsgren; Carl Christoffer Gjörwell d.y. (exterior remodel),Christian Günther; later Carl Henrik Anckarsvärd,19th Century,1801,1819,Empire,https://sv.wikipedia.org/wiki/Karlslunds_herrgård,https://www.karlslundsherrgard.se/,,https://maps.app.goo.gl/4focSP3qhVZzJU4u8,59.26981604228205,15.149477455560385,
Karlsviks herrgård,karlsviks-herrgard,Karlsvik Manor,Dalarna,Manor,Food & Drink,,,,Catharina Fahlberg,19th Century,1802,,,,http://www.karlsviksherrgard.com/,,https://maps.app.goo.gl/MNHZGtczzXGbnRYy9,60.87951037179115,15.118789407739541,
Karsholms slott,karsholms-slott,Karsholm Manor,Skåne,Manor,Sports & Recreation,,,Christian Zwingmann (rebuild),Rudolf Hodder Stjernswärd,19th Century,1600,1862,Northern Renaissance,https://sv.wikipedia.org/wiki/Karsholms_slott,https://karsholm.se/,,https://maps.app.goo.gl/nB8BCMD5yGcZBNwK6,56.11616754664835,14.307835099632944,
Karstorps säteri,karstorps-sateri,Karstorp Manor,Västergötland,Manor,Accommodation,,,Frans Wahlström,Johan Sjöberg,20th Century,1901,,,https://sv.wikipedia.org/wiki/Karstorp,https://karstorp.se/,,https://maps.app.goo.gl/UyQyBwcQnJ2v9S9G8,58.4227688006201,13.851631734638165,
Katrinetorps landeri,katrinetorps-landeri,Katrinetorp Manor,Skåne,Manor,History & Culture,,,Anders Lundberg,Erland Gabriel Bager,19th Century,1813,,Empire,https://sv.wikipedia.org/wiki/Katrinetorp,https://malmo.se/Uppleva-och-gora/Besoksmal/Katrinetorp/Katrinetorp-Landeri.html,,https://maps.app.goo.gl/fRYaT6ZWrku9QWi29,55.55127223401735,13.007130522331517,
Kipplingebergs herrgård,kipplingebergs-herrgard,Kipplingeberg Manor,Uppland,Manor,Sports & Recreation,,,,Claes Edenberg; present building under Mathias Benzelstierna,18th Century,1656,1790,,https://sv.wikipedia.org/wiki/Kiplingeberg,http://www.kiplingeberg.se/,,https://maps.app.goo.gl/VZjWMh4m7a9hz3YQ9,59.9592466114447,17.4734788322988,
Kjesäters slott,kjesaters-slott,Kjesäter Manor,Södermanland,Manor,Weddings|Sports & Recreation|Conferences & Events,,,Johan Fredrik Åbom,Gustaf Trolle Bonde,19th Century,1865,,,https://sv.wikipedia.org/wiki/Kesätter,https://www.kjesater.se/,,https://maps.app.goo.gl/cPh7aUL9waYZjrM66,59.044652567441375,15.91508245185273,
Klosters herrgård,klosters-herrgard,Kloster Manor,Dalarna,Manor,Accommodation|Conferences & Events,,,,,20th Century,1909,,,"https://sv.wikipedia.org/wiki/Kloster,_Hedemora_kommun",https://www.klostersherrgard.se/,,https://maps.app.goo.gl/Hu4xtWB3Vpyu1qJ59,60.372233042266146,16.15964035385277,
Knistads herrgård,knistads-herrgard,Knistad Manor,Västergötland,Manor,Food & Drink|Weddings|Accommodation|Sports & Recreation,,,,,18th Century,1700,1910,,https://sv.wikipedia.org/wiki/Knistad,https://www.knistad.se/,,https://maps.app.goo.gl/RavjsBZUov1a3g5R8,58.42165204156794,13.94784367894011,
Knutstorps borg,knutstorps-borg,Knutstorp Manor,Skåne,Manor,Sports & Recreation,Hunting,Shop,"Carl Georg Brunius (remodel, gave the building its characteristic stepped gables)",Otto Brahe and Beate Bille,16th Century,1551,1830,Renaissance,https://sv.wikipedia.org/wiki/Knutstorps_borg,http://www.knutstorpsbutik.se/,,https://maps.app.goo.gl/MXhxuHudYtCaWPVS8,55.97962201571989,13.134843311263944,
Kobergs slott,kobergs-slott,Koberg Manor,Västergötland,Manor,Sports & Recreation,,,Fredrik Lilljekvist,,19th Century,1600,1892,Neo-Renaissance,https://sv.wikipedia.org/wiki/Kobergs_slott,https://www.koberg.se/,,https://maps.app.goo.gl/CMUxJ7oNs4XHUUCD7,58.16403377357279,12.411796096000353,
Kohlswa herrgård,kohlswa-herrgard,Kohlswa Manor,Västmanland,Manor,Food & Drink|Accommodation,,,,Peder Larsson Höök,17th Century,1674,1790,,,https://www.kohlswa-herrgard.se/,,https://maps.app.goo.gl/BvmsaNVUXM9Nts3p9,59.60179399443291,15.83213039420097,
Korstäppans herrgård,korstappans-herrgard,Korstäppan Manor,Dalarna,Manor,Food & Drink,,,,Heijkensköld family,20th Century,1906,,,,https://www.korstappan.se/sv,,https://maps.app.goo.gl/9FMTpSePueXUzguq9,60.7394568363183,14.983782866712046,
Krageholms slott,krageholms-slott,Krageholm Manor,Skåne,Manor,Sports & Recreation,,,Nicodemus Tessin d.y. (east wing staircase and chapel),Christina Piper (rebuild),18th Century,1720,,Baroque,https://sv.wikipedia.org/wiki/Krageholms_slott,https://www.krageholm.se,,https://maps.app.goo.gl/azPSrMuyrQT2kAUFA,55.49339680018792,13.767267431718402,
Krapperups slott,krapperups-slott,Krapperup Castle,Skåne,Castle,History & Culture,,,Sven Rasmusson Wassander (rebuild),Mourids Podebusk; Maria Sofia De la Gardie; later Christopher von Kochen,18th Century,1550,1780,,https://sv.wikipedia.org/wiki/Krapperups_slott,http://krapperup.se/,,https://maps.app.goo.gl/7AGivdTMQhbX4JJz5,56.26219902441595,12.53061264754545,
Krokstad herrgård,krokstad-herrgard,Krokstad Manor,Värmland,Manor,Food & Drink,,,,,18th Century,1650,1760,,,http://krokstadherrgard.se/,,https://maps.app.goo.gl/BoSDMSiabbba8nvX7,59.10852854127471,12.905759843911612,
Kronobergs slottsruin,kronobergs-slottsruin,Kronoberg Castle Ruin,Småland,Ruin,History & Culture,Sightseeing,,,Bishop Lars Michelsson; later Gustav Vasa and sons,16th Century,1444,1543,Renaissance,https://sv.wikipedia.org/wiki/Kronobergs_slott,https://www.sfv.se/vara-fastigheter/sverige/kronobergs-lan/krono-bergs-slottsruin,,https://maps.app.goo.gl/S23ybQ3wBuhDBGLH8,56.94193358947683,14.794210943771292,
Kronovalls slott,kronovalls-slott,Kronovall Manor,Skåne,Manor,Weddings|Accommodation,,,Isak Gustaf Clason (rebuild),Carl Gustaf Sparre,19th Century,1760,1896,Baroque,https://sv.wikipedia.org/wiki/Kronovalls_slott,https://kronovall.se/,,https://maps.app.goo.gl/gBEttNg1CmVXd2s19,55.64118381366153,14.048632311244367,
Krusenbergs herrgård,krusenbergs-herrgard,Krusenberg Manor,Uppland,Manor,Food & Drink|Weddings|Accommodation|Spa & Wellness,,,"Nicodemus Tessin d.ä. (original stone castle); Carl Christoffer Gjörwell d.y. (present corps-de-logi, after fire)",Johan Cruus,19th Century,1648,1802,Gustavian,https://sv.wikipedia.org/wiki/Krusenberg,https://www.krusenbergherrgard.se/,,https://maps.app.goo.gl/AesjfgjqyCfxAg6x6,59.73528066964674,17.648080134140564,
Krägga herrgård,kragga-herrgard,Krägga Manor,Uppland,Manor,Food & Drink|Weddings|Accommodation|Spa & Wellness,,,,Built as a wedding gift from Patric Seton to his daughter Agnes,19th Century,1830,,Neoclassical,https://sv.wikipedia.org/wiki/Krägga_herrgård,https://www.kragga.se/,,https://maps.app.goo.gl/AynxLMJyQ93xzwWj8,59.60330700458136,17.397104087345326,
Kulla Gunnarstorps slott,kulla-gunnarstorps-slott,Kulla Gunnarstorp Manor,Skåne,Manor,Gardens & Parks,,,Christian Zwingmann,,19th Century,1872,,,https://sv.wikipedia.org/wiki/Kulla_Gunnarstorps_slott,http://kullagunnarstorp.se/,,https://maps.app.goo.gl/K5ZCo6vi1KJmR6uv8,56.10938069614756,12.629663203338149,
Kumla herrgård,kumla-herrgard,Kumla Manor,Södermanland,Manor,Food & Drink|Weddings,,,,Olof Törne (later ennobled Törnflycht); later Rosenblad family,17th Century,1680,1839,Baroque,https://sv.wikipedia.org/wiki/Kumla_herrgård,https://www.kumlaherrgard.se/,,https://maps.app.goo.gl/4QbvLbg89f4Emioe7,59.21676727516275,18.19283065000886,
Kungsfors herrgård,kungsfors-herrgard,Kungsfors Manor,Gästrikland,Manor,Food & Drink|Accommodation,,,,,19th Century,1863,,,,https://www.kungsforsherrgard.com/,,https://maps.app.goo.gl/5WQc3MQVM4GSLRE98,60.75900040619337,16.533098592392385,
Kåseholms slott,kaseholms-slott,Kåseholm Manor,Skåne,Manor,Weddings,,,,Johan Urne,19th Century,1632,1800,,https://sv.wikipedia.org/wiki/Kåseholm,https://www.kaseholm.se/,,https://maps.app.goo.gl/h7raCJWV9E54h49a6,55.59023366919022,13.885480991668826,
Lagaholm slottsruin,lagaholm-slottsruin,Lagaholm Castle Ruin,Halland,Ruin,History & Culture,Sightseeing,,Hans van Steenwinckel d.ä. (modernization),Christian IV,17th Century,1231,1610,Northern Renaissance,https://sv.wikipedia.org/wiki/Lagaholm,,,https://maps.app.goo.gl/1aU7pGQoBCk4ergQ7,56.51633765428683,13.050121624786787,
Lagersbergs säteri,lagersbergs-sateri,Lagersberg Manor,Södermanland,Manor,History & Culture,,,,Erik Dryselius Lagerqvist; later von Siegroth family,18th Century,1660,1750,Baroque,"https://sv.wikipedia.org/wiki/Lagersberg,_Södermanland",https://www.eskilstuna.se/uppleva-och-gora/museer-och-konst/lagersbergs-sateri.html,,https://maps.app.goo.gl/MnQFB7RE8Rx6PLxM6,59.3502001885643,16.472959503004354,
Lejondals slott,lejondals-slott,Lejondal Manor,Uppland,Manor,Food & Drink|Accommodation,,,Isak Gustaf Clason,Louise De Geer,19th Century,1889,,National Romantic,https://sv.wikipedia.org/wiki/Lejondal,https://lejondalsslott.se/,,https://maps.app.goo.gl/QMZdesWccQ62hhGs5,59.52475182488326,17.67484568070534,
Liljeholmen herrgård,liljeholmen-herrgard,Liljeholmen Manor,Östergötland,Manor,Food & Drink|Accommodation,,,,Esbjörn Pontin,20th Century,1917,,,"https://sv.wikipedia.org/wiki/Liljeholmen,_Boxholm",https://liljeholmen.nu/herrgard,,https://maps.app.goo.gl/LK74ds99eH7fnhs56,58.137217919192295,15.699695795999432,
Lillienhoffska palatset,lillienhoffska-palatset,Lillienhoff Palace,Uppland,Palace,History & Culture,Sightseeing,,Johan Tobias Albinus,Merchant Joachim Lillienhoff,17th Century,1668,,Baroque,https://sv.wikipedia.org/wiki/Lillienhoffska_palatset,https://www.stadsholmen.se/app/uploads/2018/09/Engelskahuset3-FAKATABLAD.pdf,,https://maps.app.goo.gl/vcRGM1Styh4V9bRM6,59.315619624918526,18.07252045564165,
Lillö borgruin,lillo-borgruin,Lillö Castle Ruin,Skåne,Ruin,History & Culture,Sightseeing,,,,16th Century,1290,1525,Renaissance,https://sv.wikipedia.org/wiki/Lillö_borgruin,https://vattenriket.kristianstad.se/lillo/,,https://maps.app.goo.gl/ronA72djRCHHQq1r9,56.03854912430991,14.122084254546307,
Lindholms herrgård,lindholms-herrgard,Lindholm Manor,Södermanland,Manor,Sports & Recreation,,,Erik Nordwall,Count Nils Bonde,18th Century,1794,,Neoclassical,https://sv.wikipedia.org/wiki/Lindholms_herrgård,https://lindholmsgard.com/,,https://maps.app.goo.gl/sgZy242XJY2Dppwk9,59.356250248539894,16.81335479060895,
Linköpings slott,linkopings-slott,Linköping Castle,Östergötland,Castle,History & Culture,Museum,,Arendt de Roy (expansion),Johan III; later Duke Karl (rebuild),16th Century,1100,1580,Renaissance,https://sv.wikipedia.org/wiki/Linköpings_slott,http://www.lsdm.se/,,https://maps.app.goo.gl/HCLHVdXa6jHbroq77,58.4106060757042,15.615531597915242,
Ljungs slott,ljungs-slott,Ljung Manor,Östergötland,Manor,Weddings|History & Culture|Conferences & Events|Food & Drink,,,Jean Eric Rehn,Axel von Fersen d.ä.,18th Century,1774,,Gustavian,https://sv.wikipedia.org/wiki/Ljungs_slott,https://ljungsslott.com/,,https://maps.app.goo.gl/ijRpVQAzfseVm1TD7,58.5283848666402,15.443751826758355,
Ludvigsbergs herrgård,ludvigsbergs-herrgard,Ludvigsberg Manor,Södermanland,Manor,Accommodation,,,Architect unknown (exterior similarities to Edsbergs slott),Adolf Ludvig Levin,18th Century,1782,,Gustavian,https://sv.wikipedia.org/wiki/Ludvigsbergs_herrgård,https://www.ludvigsbergsherrgard.se/,,https://maps.app.goo.gl/nPv3kJWUsZQPEoQQA,59.007823789222954,18.123285370893857,
Läckö slott,lacko-slott,Läckö Castle,Västergötland,Castle,Food & Drink|Weddings|History & Culture,,,"Frans Stiemer & Mathias Holl, master builders; Ärland Noreen (restoration)",Magnus Gabriel De la Gardie,17th Century,1298,1615,Baroque,https://sv.wikipedia.org/wiki/Läckö_slott,https://www.lackoslott.se/,,https://maps.app.goo.gl/irX5GL4smFHf65mg6,58.67520487488584,13.219691934647027,
Löfstad slott,lofstad-slott,Löfstad Manor,Östergötland,Manor,Food & Drink|History & Culture,,,Claes Håkan Eliander (rebuild after fire),Axel Lillie,17th Century,1638,1750,,https://sv.wikipedia.org/wiki/Löfstad_slott,https://lofstad.se/,,https://maps.app.goo.gl/4rRqeUGSxZD5i6MN7,58.5505865153341,16.040834540251332,
Lövstabruk,lovstabruk,Lövstabruk Manor,Uppland,Manor,History & Culture,,,Jean Eric Rehn (interiors and pavilions),,18th Century,1725,1800,,https://sv.wikipedia.org/wiki/Lövstabruks_herrgård,https://lovstabruk.squarespace.com/,,https://maps.app.goo.gl/5eUGCpjVKk1vz9de6,60.4077586536223,17.882902281644377,
Malmöhus slott,malmohus-slott,Malmöhus Castle,Skåne,Castle,Weddings|History & Culture,,,,Danish King Christian III (rebuild),16th Century,1434,1526,Renaissance,https://sv.wikipedia.org/wiki/Malmöhus,https://malmo.se/Uppleva-och-gora/Konst-och-museer/Malmo-Museer/Besok-Malmo-Museer/Vara-byggnader/Slottsholmen/Malmohus-slott.html,,https://maps.app.goo.gl/SAaUzYrNCyb1r1kc9,55.60501016513571,12.988459319984006,
Maltesholms slott,maltesholms-slott,Maltesholm Manor,Skåne,Manor,Sports & Recreation,,,"Hans ""Bygge-Hans"" Ramel (rebuild)",Malte Juul,18th Century,1635,1780,Rococo,https://sv.wikipedia.org/wiki/Maltesholms_slott,http://www.maltesholm.se,,https://maps.app.goo.gl/TCfeYw9Nihxb8Ukz7,55.902129496183555,13.981911221854071,
Mauritzbergs slott,mauritzbergs-slott,Mauritzberg Manor,Östergötland,Manor,Food & Drink|Weddings|Accommodation,,,"Claude Roquette; Carl Hårleman (detailing, after rebuild)",Erik Sparre; later Claes Ekeblad (rebuild after fire),18th Century,1670,1725,Baroque,https://sv.wikipedia.org/wiki/Mauritzberg,https://mauritzberg.se/,,https://maps.app.goo.gl/FEWuiK9QLt5AoJpt9,58.6062131734256,16.676415092316095,
Melderstein herrgård,melderstein-herrgard,Melderstein Manor,Norrbotten,Manor,Food & Drink|Weddings,,,,"Jonas Meldercreutz, Abraham Steinholtz and Carl-Johan Thingwall",18th Century,1741,,,https://sv.wikipedia.org/wiki/Melderstein,https://www.melderstein.se/,,https://maps.app.goo.gl/xfwGCpb5h7V1u58Q9,65.94176384917158,22.15228556559852,
Moholms herrgård,moholms-herrgard,Moholm Manor,Västergötland,Manor,Weddings|Sports & Recreation,,,Carl Johan Cronstedt,Märta Margaretha Bonde (m. Carl Sparre),18th Century,1766,,Neoclassical,https://sv.wikipedia.org/wiki/Moholm,http://www.moholmsherrgard.se/,,https://maps.app.goo.gl/ytfLo3qXju1bgntw8,58.60259736200669,14.046083438344276,
Munkedals herrgård,munkedals-herrgard,Munkedal Manor,Bohuslän,Manor,Food & Drink|Accommodation,,,,Herman Julius Nordberg,19th Century,1823,,,,https://www.munkedalsherrgard.se/,,https://maps.app.goo.gl/adHtaGn4RxCTwgyE8,58.4843936821002,11.698540505804678,
Myrö slott,myro-slott,Myrö Manor,Närke,Manor,Weddings,,,Carl Johan Cronstedt; Lars Israel Wahlman (interior modernization),Pehr Kalling,18th Century,1770,1902,Rococo,https://sv.wikipedia.org/wiki/Myrö,https://myro.se/,,https://maps.app.goo.gl/GcRPMkHLmpVxEgsPA,59.30071151338047,15.297147605833395,
Mårbacka,marbacka,Mårbacka Manor,Värmland,Manor,History & Culture,,,Isak Gustaf Clason (rebuild),Selma Lagerlöf,20th Century,1793,1921,Baroque,https://sv.wikipedia.org/wiki/Mårbacka,http://www.marbacka.com/,,https://maps.app.goo.gl/Tu93FD8KHiwvFfVP6,59.78163781477387,13.235597681291,
Mälby säteri,malby-sateri,Mälby Manor,Södermanland,Manor,Accommodation,,,Design input from Carl August Ehrensvärd (remodel),Gustav Horn; later Johan Gustaf von Carlsson,18th Century,1650,1780,Gustavian,"https://sv.wikipedia.org/wiki/Mälby,_Gnesta",https://www.malbysateri.se/,,https://maps.app.goo.gl/y9GJT13skhbY7ba39,59.006370349027755,17.341177330536222,
Mälsåkers slott,malsakers-slott,Mälsåker Manor,Södermanland,Manor,Weddings|History & Culture,,,Nicodemus Tessin d.ä.,,17th Century,1608,1672,Baroque,https://sv.wikipedia.org/wiki/Mälsåker,http://malsaker.nu/,,https://maps.app.goo.gl/SFkUTWKNYHgqe3bx9,59.38406686259184,17.306831569137415,
Möckelsnäs herrgård,mockelsnas-herrgard,Möckelsnäs Manor,Småland,Manor,Food & Drink|Weddings|Accommodation,,,,Carl Eduard von Horn,20th Century,1600,1906,,,https://www.destinationmockelsnas.se/,,https://maps.app.goo.gl/LbDcXAnAdKDMHstR8,56.61366973951629,14.157322809439888,
Noors slott,noors-slott,Noor Manor,Uppland,Manor,Food & Drink|Weddings|Accommodation,,,Possibly Jean de la Vallée (rebuild),Nils Gyldenstolpe,17th Century,1689,,Baroque,https://sv.wikipedia.org/wiki/Noors_slott,https://noorsslott.se/,,https://maps.app.goo.gl/yWR6KWgKF41KvSxq9,59.71653177601279,17.82164803784204,
Norrfly herrgård,norrfly-herrgard,Norrfly Manor,Hälsingland,Manor,Food & Drink|Accommodation,,,,Hanebo parish,20th Century,1907,,,,https://www.norrflyherrgard.se/,,https://maps.app.goo.gl/QQkfi5z6C44stmGL9,61.25716180246118,16.536669592015695,
Nya slottet Bjärka-Säby,nya-slottet-bjarka-saby,Nya Bjärka-Säby Manor,Östergötland,Manor,Weddings,,,"Fredrik Magnus Piper; Agi Lindegren (rebuild, with tower)",Germund Ludvig Cederhielm,19th Century,1791,1894,Baroque,https://sv.wikipedia.org/wiki/Bjärka-Säby_slott,http://nyaslottet.se/,,https://maps.app.goo.gl/v4urPGUe8Sy8QuJ76,58.27069586734514,15.739550116434758,
Nyckelviken,nyckelviken,Nyckelviken Manor,Södermanland,Manor,Food & Drink|Weddings,,,,"Herman Petersen, director of the Swedish East India Company",18th Century,1740,,,https://sv.wikipedia.org/wiki/Stora_Nyckelviken,https://www.nyckelvikensherrgard.se/,,https://maps.app.goo.gl/HCGtosuFGigTXe529,59.32273691007595,18.19069658646504,
Nygårds herrgård,nygards-herrgard,Nygård Manor,Småland,Manor,Accommodation,,,Probably Knut Malte Forsberg,Ulfsparre family (built as a wedding gift for their son),19th Century,1858,,,,http://nygardsherrgard.com/,,https://maps.app.goo.gl/5BeEoHDrUkPU3zuFA,57.60087439111431,18.227516057617827,
Nyköpingshus,nykopingshus,Nyköpingshus Castle,Småland,Castle,Food & Drink,,,Christoffer Pahr; Herkules (Hercules) Mida,,16th Century,1200,1573,Renaissance,https://sv.wikipedia.org/wiki/Nyköpingshus,https://nykopingshus.nu/,,https://maps.app.goo.gl/mDhjnaoAZwp9bnaM8,58.74897793040047,17.011121726771574,
Nynäs slott,nynas-slott,Nynäs Manor,Södermanland,Manor,Food & Drink|Sports & Recreation|History & Culture,,,,Erik Karlsson Gyllenstierna; later Johan August Gripenstedt,19th Century,1650,1860,,https://sv.wikipedia.org/wiki/Nynäs_slott,https://www.nynasslott.se,,https://maps.app.goo.gl/gkemPNjRLzaLgxqC8,58.8080063964073,17.36689108577795,
Näsby slott,nasby-slott,Näsby Manor,Uppland,Manor,Food & Drink|Weddings|Accommodation|Spa & Wellness,,,"Nicodemus Tessin d.ä.; Erik Josephson (faithful rebuild after fire, to Tessin's original exterior plans)",Peder Larsson Sparre; later Carl Robert Lamm,17th Century,1665,1902,Baroque,https://sv.wikipedia.org/wiki/Näsby_slott,https://www.nasbyslott.se/,,https://maps.app.goo.gl/SZtoSGAWoorrMVwBA,59.424278814950874,18.086631334745356,
Nääs slott,naas-slott,Nääs Manor,Västergötland,Manor,Food & Drink|History & Culture,,,"Adrian Crispin Peterson (renovation, gave the facade its decor)",August Abrahamson,19th Century,1630,1868,Neo-Renaissance,https://sv.wikipedia.org/wiki/Nääs_slott,https://www.naas.se,,https://maps.app.goo.gl/EHtfJv97jZUXUYKQ9,57.81644028997655,12.401259186425964,
Olshammarsgården,olshammarsgarden,Olshammar Manor,Närke,Manor,History & Culture,,,,"Carl Rüttersköld, grandfather of Verner von Heidenstam",19th Century,1822,,,https://sv.wikipedia.org/wiki/Olshammarsgården,https://www.olshammarsgarden.com/,,https://maps.app.goo.gl/miQNnMwBH3mCMKE47,58.758896099426394,14.803443134735872,
Arvsfurstens palats,arvsfurstens-palats,Palace of the Hereditary Prince Palace,Uppland,Palace,History & Culture,Sightseeing,,Erik Palmstedt (rebuild),Lennart Torstensson; later Princess Sophia Albertina,18th Century,1647,1783,Gustavian,https://sv.wikipedia.org/wiki/Arvfurstens_palats,https://www.sfv.se/vara-fastigheter/sok/sverige/stockholms-lan/regeringsbyggnader/arvfurstens-palats/,,https://maps.app.goo.gl/ppDgyqhPmYQn8Bwo7,59.32931394706672,18.067690986198183,
Penningby slott,penningby-slott,Penningby Manor,Uppland,Manor,History & Culture,Guided Tours,,,Lars Turesson Tre Rosor,16th Century,1466,1543,Renaissance,https://sv.wikipedia.org/wiki/Penningby,https://www.biljettkiosken.se/penningby-slott,,https://maps.app.goo.gl/mCrSW9tDMfyreKaV8,59.68163009836459,18.67268858449985,
Pålsjö slott,palsjo-slott,Pålsjö Manor,Skåne,Manor,History & Culture,Sightseeing,,"Christian Abraham(s) (remodel, gave the tower its current form)",Magnus Paulin,17th Century,1676,1873,,https://sv.wikipedia.org/wiki/Pålsjö_slott,,,https://maps.app.goo.gl/QE9mtVu32oxK3pNAA,56.06916514833479,12.680709141435843,
Ragnhildsholmens borgruin,ragnhildsholmens-borgruin,Ragnhildsholmen Castle Ruin,Bohuslän,Ruin,History & Culture,Sightseeing,,,"Håkon Håkonsson, Norwegian king",13th Century,1250,,,https://sv.wikipedia.org/wiki/Ragnhildsholmen,https://www.sfv.se/vara-fastigheter/sverige/vastra-gotalands-lan/ragnhildsholmens-borgruin,,https://maps.app.goo.gl/4sHJuffN1U6hgjEv8,57.84515990381536,11.93986421322606,
Rankhyttans herrgård,rankhyttans-herrgard,Rankhyttan Manor,Dalarna,Manor,Weddings|Accommodation,,,,,19th Century,1813,,,https://sv.wikipedia.org/wiki/Rankhyttan,https://www.rankhyttan.se/,,https://maps.app.goo.gl/mXQ8qi6zSTCGjyMT9,60.47558851168322,15.720584071072079,
Reutersbergs säteri,reutersbergs-sateri,Reutersberg Manor,Västergötland,Manor,Sports & Recreation,,,,,19th Century,1800,,,,https://reutersberg.com/,,https://maps.app.goo.gl/2PyxXue8z19hdyRm9,57.598376504879695,13.410401928752824,
Ribbingsfors herrgård,ribbingsfors-herrgard,Ribbingsfors Manor,Västergötland,Manor,Sports & Recreation,,,,Bo Ribbing,18th Century,1700,,Baroque,https://sv.wikipedia.org/wiki/Ribbingsfors,https://www.ribbingsforsherrgard.se/,,https://maps.app.goo.gl/WGSt3WwpdugQCCtp8,58.96504762461011,14.121125757602591,
Riddersviks herrgård,riddersviks-herrgard,Riddersvik Manor,Uppland,Manor,Food & Drink|Weddings,,,,Elias von Langenberg d.ä.,18th Century,1762,,Gustavian,https://sv.wikipedia.org/wiki/Riddersvik,https://www.riddersviksherrgard.se,,https://maps.app.goo.gl/EBkiZTn6QpX5KS658,59.379862913987026,17.798186559481397,
Risberg herrgård,risberg-herrgard,Risberg Manor,Värmland,Manor,Sports & Recreation,,,,,19th Century,1800,,,,https://risbergherrgard.se/,,https://maps.app.goo.gl/veRgLzMPrmYbRnMh6,59.995761363884654,13.637303286465041,
Rockelstad slott,rockelstad-slott,Rockelstad Manor,Södermanland,Manor,Weddings,,,Isak Gustaf Clason and Gustaf Lindgren (rebuild); Ivar Tengbom (present appearance),Johan Robert Stuart; later Carl Sylvan; later Eric von Rosen,20th Century,1660,1900,National Romantic,https://sv.wikipedia.org/wiki/Rockelsta,https://www.rockelstad.se/,,https://maps.app.goo.gl/XUiVk8nFmCCxGbok8,59.039134883671245,16.85711299795282,
Roma kungsgård,roma-kungsgard,Roma Manor,Gotland,Manor,History & Culture,,Café,,Governor Johan Didrik Grönhagen,18th Century,1733,,,https://sv.wikipedia.org/wiki/Roma_kungsgård,https://www.romakungsgard.se,,https://maps.app.goo.gl/AaG64dUsZrMhAXrJ6,57.516126128808175,18.458915496009368,
Ronnums herrgård,ronnums-herrgard,Ronnum Manor,Västergötland,Manor,Weddings|Accommodation|Spa & Wellness,,,,,19th Century,1847,,,https://sv.wikipedia.org/wiki/Rånnum,https://ligula.se/collection/ronnums-herrgard/,,https://maps.app.goo.gl/R76BZgiXL4k8wJXE7,58.354778596996034,12.386585684606533,
Rosendals slott (Skåne),rosendals-slott-skane,Rosendal Castle,Skåne,Castle,Accommodation|Food & Drink|Weddings|Conferences & Events|Gardens & Parks,,,Hans van Steenwinckel d.y.,Anders Bille; later Jacob Wilhelm Bennet (east wing),17th Century,1615,1756,Northern Renaissance,"https://sv.wikipedia.org/wiki/Rosendals_slott,_Helsingborg",https://rosendals-slott.com/,,https://maps.app.goo.gl/Nk2uX8Wb8jf6ToGX7,56.09054296735123,12.829858999631494,
Rosendals slott,rosendals-slott,Rosendal Palace,Uppland,Palace,History & Culture,,,Fredrik Blom,,19th Century,1823,,Swedish Empire,https://sv.wikipedia.org/wiki/Rosendals_slott,https://www.kungligaslotten.se/vara-besoksmal/rosendals-slott.html,,https://maps.app.goo.gl/22wzmSZrTPakMQ7y5,59.329021248970406,18.118004328136916,
Rosenfors herrgård,rosenfors-herrgard,Rosenfors Manor,Öland,Manor,Accommodation,,,,Axel Adlersparre,19th Century,1807,,,,http://www.rosenforsherrgard.se/,,https://maps.app.goo.gl/KXUNbD5W4WPjwmW49,56.87215864180211,16.666837511315972,
Rosersbergs slott,rosersbergs-slott,Rosersberg Palace,Uppland,Palace,Food & Drink|Weddings|Accommodation|History & Culture,,,"Possibly Simon de la Vallée (original, unconfirmed); Nicodemus Tessin d.y. (remodel); Jean Eric Rehn (interiors); Gustaf af Sillén (remodel)",,17th Century,1634,1690,Baroque,https://sv.wikipedia.org/wiki/Rosersbergs_slott,https://www.rosersbergsslott.se/,,https://maps.app.goo.gl/4WpoFFvDbFwpQGc6A,59.57442014041486,17.84477010142953,
Rottneros herrgård,rottneros-herrgard,Rottneros Manor,Värmland,Manor,Gardens & Parks,,,Georges von Dardel,Svante Påhlson,20th Century,1930,,Neoclassical,https://sv.wikipedia.org/wiki/Rottneros_herrgård,http://www.rottnerospark.se/,,https://maps.app.goo.gl/nutBwq232PmZY8HS7,59.800887728887425,13.12601356833987,
Kungliga slottet,kungliga-slottet,Royal Palace,Uppland,Palace,History & Culture,,,Nicodemus Tessin d.y.; Carl Hårleman; Carl Gustaf Tessin; Carl Johan Cronstedt; Carl Fredrik Adelcrantz,,18th Century,1697,,Baroque,https://sv.wikipedia.org/wiki/Stockholms_slott,https://www.kungligaslotten.se/vara-besoksmal/kungliga-slottet.html,,https://maps.app.goo.gl/STAB2BzWx6QbLHvz6,59.326919992286726,18.071730126806205,
Ruders egendom,ruders-egendom,Ruder Manor,Västergötland,Manor,Accommodation,,,,,17th Century,1650,,,,https://ruder.se/,,https://maps.app.goo.gl/DsHdfCh61KuM3vC47,58.396793501305694,14.190316846005961,
Rydals herrgård,rydals-herrgard,Rydal Manor,Västergötland,Manor,Food & Drink|Weddings,,,,"Sven Erikson, for Rydahls Manufaktur AB",19th Century,1853,,Neoclassical,,https://www.rydalsherrgard.se/,,https://maps.app.goo.gl/ay3XGzAKL4CRuBqn8,57.55473282931408,12.695006628783787,
Rånäs slott,ranas-slott,Rånäs Manor,Uppland,Manor,Food & Drink|Weddings|Accommodation|Spa & Wellness,,,Per Axel Nyström,Axel Didrik Reuterskiöld,19th Century,1833,,Empire,https://sv.wikipedia.org/wiki/Rånäs_slott,https://www.ranasslott.se,,https://maps.app.goo.gl/vQySZ7AxiviMFGko7,59.79124406226338,18.295647915285876,
Salnecke slott,salnecke-slott,Salnecke Manor,Uppland,Manor,Food & Drink,,Shop|Café|Bistro,,Georg Grissbach,17th Century,1646,,Renaissance,https://sv.wikipedia.org/wiki/Salnecke_slott,,,https://maps.app.goo.gl/CYKJmE54bqGkiRK39,59.73900761081661,17.338204174085632,
Salsta slott,salsta-slott,Salsta Manor,Uppland,Manor,Weddings|Accommodation|History & Culture,,,"Mathias Spihler, with design input from Nicodemus Tessin d.ä. (modeled on Vaux-le-Vicomte)",Nils Bielke d.y.,17th Century,1672,,Baroque,https://sv.wikipedia.org/wiki/Salsta_slott,https://salsta-slott.se/,,https://maps.app.goo.gl/gQrtWwbeDUSmbQtw6,60.045485073002446,17.739813128702377,
Schenströmska herrgården,schenstromska-herrgarden,Schenströmska Manor,Västmanland,Manor,Weddings|Accommodation,,,,Magnus Schenström,18th Century,1762,,,https://sv.wikipedia.org/wiki/Schenströmska_herrgården,https://schenstromska.se/,,https://maps.app.goo.gl/jK3oqFwUzhjo8zxW9,59.78067509896354,16.182328426898373,
Sikfors herrgård,sikfors-herrgard,Sikfors Manor,Närke,Manor,Accommodation,,,,Axel Uggla,19th Century,1849,,,,https://sikforsherrgard.se/,,https://maps.app.goo.gl/12MC9hy3eoK5W73RA,59.80010984414562,14.583261615285368,
Skalltorps säteri,skalltorps-sateri,Skalltorp Manor,Södermanland,Manor,Sports & Recreation,,,,Börje Rosenstråle,17th Century,1640,1780,Baroque,,http://www.skalltorp.se,,https://maps.app.goo.gl/A8CiFx4B2ZgLGiZN8,58.9655929784877,16.07981811527319,
Skansen Kronan,skansen-kronan,Skansen Kronan,Västergötland,Fortress,Weddings,,,Erik Dahlbergh,,17th Century,1687,,,https://sv.wikipedia.org/wiki/Skansen_Kronan,https://www.skansenkronan.se/,,https://maps.app.goo.gl/9Qh5UEWr2kszfY8u8,57.69617623865569,11.955423672921961,
Skarhults slott,skarhults-slott,Skarhult Castle,Skåne,Castle,Sports & Recreation|History & Culture,,,,Torben Jensen Rosensparre; later Steen Rosensparre,16th Century,1500,1562,Renaissance,https://sv.wikipedia.org/wiki/Skarhults_slott,http://www.skarhult.se/,,https://maps.app.goo.gl/S2V4k8spRWhchPFB7,55.80406611254206,13.37219314412905,
Skeppsviks herrgård,skeppsviks-herrgard,Skeppsvik Manor,Västerbotten,Manor,Food & Drink,,,,,18th Century,1770,1849,,,http://www.skeppsvik.se/,,https://maps.app.goo.gl/Vxc1gmZUcE8hmCxD6,63.794353978674835,20.575626690141956,
Skogaholms herrgård,skogaholms-herrgard,Skogaholm Manor,Uppland,Manor,History & Culture,,,,Anders Wennerstedt and Catharina Rosenberg,18th Century,1680,1790,Gustavian,https://sv.wikipedia.org/wiki/Skogaholms_herrgård,https://www.skansen.se/sv/skogaholms-gård-och-köksträdgård-ua,,https://maps.app.goo.gl/FowFKPPPdFdaKxk67,59.32579606546934,18.10475291680726,
Skoklosters slott,skoklosters-slott,Skokloster Castle,Uppland,Castle,History & Culture,,,"Jean de la Vallée (initial design); Nicodemus Tessin d.ä. (revision); probably Caspar Vogel, master builder",,17th Century,1654,,Baroque,https://sv.wikipedia.org/wiki/Skoklosters_slott,https://skoklostersslott.se/sv,,https://maps.app.goo.gl/VhTYJuiHnMauymRT8,59.703258061905615,17.621252357517783,
Skottorps slott,skottorps-slott,Skottorp Manor,Halland,Manor,Sports & Recreation,,,Niclas/Nils Eosander (original manor); Nicodemus Tessin d.ä. (festival hall addition); Carl Fredrik Sundvall (rebuild),,19th Century,1663,1816,Empire,https://sv.wikipedia.org/wiki/Skottorps_slott,https://www.skottorp.com,,https://maps.app.goo.gl/NW9ZgPa9eeGU5sxR8,56.43532066786688,12.987065608650905,
Skytteholm,skytteholm,Skytteholm Manor,Uppland,Manor,Food & Drink|Weddings|Accommodation|Spa & Wellness,,,,Founded by Johan Skytte; completed to its present form by Isidor Fagraeus,20th Century,1631,1918,,"https://sv.wikipedia.org/wiki/Skytteholm,_Ekerö_kommun",https://www.skytteholm.se/,,https://maps.app.goo.gl/znjWLApcn4skuLkBA,59.319765621801054,17.66882838644627,
Skånelaholms slott,skanelaholms,Skånelaholm Manor,Uppland,Manor,History & Culture,,,,Andreas Gyldenklou,17th Century,1639,1891,Dutch Renaissance,https://sv.wikipedia.org/wiki/Skånelaholms_slott,http://www.vitterhetsakad.se/kulturfastigheter/skanelaholms_slott/,,https://maps.app.goo.gl/i79ojLoviHEuWbTv9,59.57844372150036,17.93574942682136,
Skärva herrgård,skarva-herrgard,Skärva Manor,Blekinge,Manor,Weddings|Accommodation,,,Carl August Ehrensvärd,Fredrik Henric af Chapman,18th Century,1786,,Neoclassical,https://sv.wikipedia.org/wiki/Skärva_herrgård,https://skarvaherrgard.com/,,https://maps.app.goo.gl/X5MyDMPsGAeg6sPg8,56.20153522033423,15.572467813426353,
Sofiero,sofiero-slott,Sofiero Palace,Skåne,Palace,Food & Drink|Weddings|History & Culture,,,"Ferdinand Meldahl (original, single-story); Ernst Jacobsson (second story)",,19th Century,1864,1874,Dutch Renaissance,https://sv.wikipedia.org/wiki/Sofiero,https://sofiero.se/,,https://maps.app.goo.gl/FzhWGJ5ZnvjQnYXY9,56.08394195130773,12.660044720533904,
Solliden,sollidens-slott,Solliden Palace,Öland,Palace,Food & Drink|History & Culture,,,Torben Grut,Crown Princess Victoria,20th Century,1903,,Italianate,https://sv.wikipedia.org/wiki/Solliden,https://sollidensslott.se,,https://maps.app.goo.gl/qVSqyorMqMFoti5G6,56.86544056944233,16.634610068987808,
Sonstorps bruk,sonstorps-bruk,Sonstorp Manor,Södermanland,Manor,Sports & Recreation,,,Probably Carl Johan Cronstedt,"Begun for Nils Palmstierna, completed for Olof Burenstam",18th Century,1756,1792,Gustavian,https://sv.wikipedia.org/wiki/Sonstorps_bruk,https://www.sonstorpsbruk.se,,https://maps.app.goo.gl/sbJQhAZBVQuMp1SF9,58.742485893882744,15.625367037802942,
Sparreholms slott,sparreholms-slott,Sparreholm Manor,Södermanland,Manor,History & Culture,,,"Jean Eric Rehn; Carl Fredrik Adelcrantz (wings); Johan August Westerberg (remodel, added the roof cupola and hanging towers)",For Johan Vilhelm Sprengtporten; remodeled for Emil Dickson,19th Century,1759,1890,Gustavian,https://sv.wikipedia.org/wiki/Sparreholms_slott,https://www.sparreholmsslott.com,,https://maps.app.goo.gl/BkbA39afHznEKWVi7,59.08358708556255,16.827235211447093,
Spånhults herrgård,spanhults-herrgard,Spånhult Manor,Småland,Manor,Food & Drink,,,,Home of the Spånberg family for eight generations,17th Century,1650,1800,,,https://spanhult.se/,,https://maps.app.goo.gl/irBxZp4jadKEWxzT7,57.713311283059355,14.130145157615786,
Stabergs herrgård,stabergs-herrgard,Staberg Manor,Dalarna,Manor,History & Culture,,,,Olof Simonsson Nauclerus,17th Century,1671,,Baroque,,https://www.stabergsbergsmansgard.se,,https://maps.app.goo.gl/xngR8NxMpogSNGj6A,60.56244209057333,15.780063438021003,
Stegeborgs slottsruin,stegeborgs-slottsruin,Stegeborg Castle Ruin,Östergötland,Ruin,History & Culture,Sightseeing,,"Hans Fleming, master builder (rebuild)",,16th Century,1200,1580,Renaissance,https://sv.wikipedia.org/wiki/Stegeborg,http://www.stegeborg.se/,,https://maps.app.goo.gl/ymrWcEYKe1yZahfo8,58.44173725199303,16.598344853736542,
Stegeholms slottsruin,stegeholms-slottsruin,Stegeholm Castle Ruin,Småland,Ruin,History & Culture,Sightseeing,,,Duke Albrecht II of Mecklenburg; later Hans Christoff Königsmarck (rebuild),17th Century,1370,1651,https://www.vastervik.com/produkt/stegeholms-slottsruin/,https://sv.wikipedia.org/wiki/Stegeholm,https://www.vastervik.com/produkt/stegeholms-slottsruin/,,https://maps.app.goo.gl/5X7TWerSQVx9vTvs7,57.762744642715475,16.642846342057304,
Steninge slott,steninge-slott,Steninge Manor,Uppland,Manor,Food & Drink,,,Nicodemus Tessin d.y.,,17th Century,1694,,Baroque,https://sv.wikipedia.org/wiki/Steninge_slott,https://steningebruk.se/,,https://maps.app.goo.gl/uUXiuzsJziSGiW1b6,59.60230472148721,17.804320859389808,
Stjernsunds slott,stjernsunds-slott,Stjernsund Manor,Närke,Manor,History & Culture|Food & Drink,Guided Tours,Shop|Café,Carl Fredrik Sundvall,Olof Burenstam,19th Century,1798,,Neoclassical,https://sv.wikipedia.org/wiki/Stjernsunds_slott,http://www.vitterhetsakademien.se/,,https://maps.app.goo.gl/KmNyupp4ZyFEXobo9,58.85158750400575,14.937921906906961,
Stjärnholm,stjarnholm,Stjärnholm Manor,Närke,Manor,Food & Drink|Weddings|History & Culture,,,,Founded by Johan Silfverstierna; stone main building built for the de Besche family,18th Century,1735,,,https://sv.wikipedia.org/wiki/Stjärnholm,https://stjarnholm.se/,,https://maps.app.goo.gl/AqAEqmCkmnH76ppi9,58.6941688568796,17.031893163686274,
Stjärntorp slottsruin,stjarntorp-slottsruin,Stjärntorp Castle Ruin,Östergötland,Ruin,History & Culture,,,Nicodemus Tessin d.ä.,Count Robert Douglas,17th Century,1655,,Baroque,,https://visitlinkoping.se/se-och-gora/stjarnorps-slottsruin/,,https://maps.app.goo.gl/2WRnv1wxJHfdeVvH6,58.5323908857035,15.57823456908638,
Stola herrgård,stola-herrgard,Stola Manor,Västergötland,Manor,History & Culture,,,Carl Hårleman (interiors),Clas Julius Ekeblad d.ä.,18th Century,1713,,Baroque,https://sv.wikipedia.org/wiki/Stola_herrgård,http://www.stola.se/,,https://maps.app.goo.gl/RPTy2ST5Sap4FcKK6,58.59484146190049,13.084037569256205,
Stora Djulö,stora-djulo-herrgard,Stora Djulö Manor,Södermanland,Manor,Food & Drink,,,,Erik von Fitinghoff,18th Century,1720,,Baroque,https://sv.wikipedia.org/wiki/Stora_Djulö,https://storadjulo.se/,,https://maps.app.goo.gl/zaudaMkMteNSxWh3A,58.97169227137569,16.215076086429004,
Stora Sundby slott,stora-sundby-slott,Stora Sundby Manor,Södermanland,Manor,Food & Drink|Sports & Recreation,,,Peter Frederick Robinson,Original stone house for Lars Siggesson Sparre; rebuilt for Carl De Geer; Abraham Nyström,19th Century,1546,1831,Gothic Revival,https://sv.wikipedia.org/wiki/Stora_Sundby_slott,https://storasundby.com/,,https://maps.app.goo.gl/B7hWG42rDTPZRDye9,59.271145225545496,16.1225785980545,
Storebro herrgård,storebro-herrgard,Storebro Manor,Småland,Manor,Accommodation,,,Nils Olsson (master builder),Claes Fries,19th Century,1821,,,https://sv.wikipedia.org/wiki/Storebro_Bruk,https://www.storebroherrgard.se/en/,,https://maps.app.goo.gl/m5cM1FkdqTYkdbh76,57.58713738546074,15.836716188293101,
Strömsholms slott,stromsholms-slott,Strömsholm Manor,Västmanland,Manor,Weddings|History & Culture,,,Nicodemus Tessin d.ä.,,17th Century,1550,1669,Baroque,https://sv.wikipedia.org/wiki/Strömsholms_slott,https://www.kungligaslotten.se/vara-besoksmal/stromsholms-slott/,,https://maps.app.goo.gl/vQBWyQZr1LE5FAYa6,59.52494135270289,16.26990183059459,
Sturehovs slott,sturehovs-slott,Sturehov Manor,Södermanland,Manor,Conferences & Events|Weddings|Food & Drink,,Shop,Carl Fredrik Adelcrantz,Johan Liljencrantz,18th Century,1781,,Gustavian,https://sv.wikipedia.org/wiki/Sturehov,https://www.sturehov.se/luncher-middagar,,https://maps.app.goo.gl/a53dcrDNg7ReqxKG9,59.25778122999464,17.758594828654847,
Sundbyholms slott,sundbyholms-slott,Sundbyholm Manor,Södermanland,Manor,Food & Drink|Weddings|Accommodation|Spa & Wellness,,,Mathias Spihler (modernization),Carl Carlsson Gyllenhielm; later Carl Gabriel Bååt,17th Century,1639,1670,Baroque,https://sv.wikipedia.org/wiki/Sundbyholms_slott,https://sundbyholms-slott.se/,,https://maps.app.goo.gl/EgXk8G5awCLpoDMQA,59.4461190749031,16.6242402864077,
Svaneholms slott,svaneholms-slott,Svaneholm Manor,Skåne,Manor,Food & Drink|Weddings|History & Culture,,,,Mourids Jepsen Sparre; east wing enlarged under Axel Gyllenstierna,16th Century,1530,1700,Renaissance,https://sv.wikipedia.org/wiki/Svaneholms_slott,https://svaneholmsslott.se/,,https://maps.app.goo.gl/uz3qvVnvUvHLGS5J7,55.5009291035586,13.478271272940738,
Svartsjö slott,svartsjo-slott,Svartsjö Castle,Uppland,Castle,History & Culture|Food & Drink,Museum,Shop|Café,Willem Boy (original); Carl Hårleman (rebuild); Carl Fredrik Adelcrantz (wings),,18th Century,1580,1734,Rococo,https://sv.wikipedia.org/wiki/Svartsjö_slott,http://www.svartsjoslott.se/,,https://maps.app.goo.gl/6FS37j4vAkL9eFtd8,59.36285431842421,17.727724253791695,
Svartviks herrgård,svartviks-herrgard,Svartvik Manor,Ångermanland,Manor,Food & Drink|Weddings,,,,Built for the Royal Rapids-Clearing Committee (Strömrensningskommittén),19th Century,1820,,,,https://www.svartviksherrgard.se/,,https://maps.app.goo.gl/cksJb9Wm7dLHqegP6,62.31684805631988,17.371488913418222,
Svindersviks herrgård,svindersviks-herrgard,Svindersvik Manor,Södermanland,Manor,History & Culture,,,Carl Hårleman,Claes Grill,18th Century,1740,,Rococo,https://sv.wikipedia.org/wiki/Svindersvik,https://www.nordiskamuseet.se/slott-gardar/svindersvik,,https://maps.app.goo.gl/JpSLuZRpRvmtpmFGA,59.310335616576246,18.13059138536905,
Såstaholm,sastaholms,Såstaholm Manor,Uppland,Manor,Food & Drink|Accommodation,,,,Max Sievert,20th Century,1903,,Art Nouveau (Jugend),https://sv.wikipedia.org/wiki/Såstaholm,https://www.sastaholm.se/,,https://maps.app.goo.gl/xCF9z4yk2yqXvCLU6,59.48279529845394,18.038283904159236,
Säfstaholms slott,safstaholms-slott,Säfstaholm Manor,Södermanland,Manor,Food & Drink,,,Erik Dahlbergh; later Carl Christoffer Gjörwell d.y. (remodel),Gustaf Larsson Sparre; later Gustaf Trolle-Bonde,17th Century,1666,1815,Neoclassical,https://sv.wikipedia.org/wiki/Sävstaholms_slott,https://safstaholm.se/,,https://maps.app.goo.gl/5XDGd8nizar4gzxFA,59.04632345243195,15.88202914226546,
Sätra bruks herrgård,satra-bruks-herrgard,Sätra Manor,Västergötland,Manor,Accommodation,,,,Built as residence for the ironworks patron,18th Century,1790,,,,https://satrabruk.se/,,https://maps.app.goo.gl/P9DEykUCwra5KLGc7,58.69054501800146,14.349083017139817,
Söderfors herrgård,soderfors-herrgard,Söderfors Manor,Uppland,Manor,Food & Drink|Weddings,,,Carl Hårleman (remodel),Claes Anckarström; later Claes Grill,18th Century,1700,1749,Rococo,https://sv.wikipedia.org/wiki/Söderfors_herrgård,http://www.soderforsherrgard.se/,,https://maps.app.goo.gl/HKneeUxzWXTJSykZ8,60.38355690166476,17.238789913427357,
Södertuna slott,sodertuna-slott,Södertuna Manor,Södermanland,Manor,Food & Drink|Weddings|Accommodation|History & Culture|Spa & Wellness,,,"Isak Gustaf Clason (modernization, added pilasters, festoons, and a Baroque roof lantern)",Ebba von Hallwyl and Wilhelm von Eckermann,19th Century,1700,1891,Baroque,https://sv.wikipedia.org/wiki/Södertuna,https://www.sodertuna.se/,,https://maps.app.goo.gl/78GNkyTTitLnd6kG9,59.06861271144881,17.305204915255423,
Söderö gård,sodero-gard,Söderö Manor,Östergötland,Manor,Sports & Recreation,,,,Fredrik August Adelswärd,19th Century,1806,,,https://sv.wikipedia.org/wiki/Söderö,https://www.sodero.se/,,https://maps.app.goo.gl/Pgu4uGwjgpxJtuJX6,58.089605972985765,15.86395611528486,
Sölvesborgs slottsruin,solvesborgs-slottsruin,Sölvesborg Castle Ruin,Blekinge,Ruin,History & Culture,Sightseeing,,,Danish King Erik Menved,14th Century,1300,,https://www.lansstyrelsen.se/blekinge/besoksmal/kulturmiljoer/solvesborgs-slottsruin.html?sv.target=12.382c024b1800285d5863a87c&sv.12.382c024b1800285d5863a87c.route=/&searchString=&counties=&municipalities=&reserveTypes=&natureTypes=&accessibility=&facilities=&sort=none,https://www.lansstyrelsen.se/blekinge/besoksmal/kulturmiljoer/solvesborgs-slottsruin.html,https://www.lansstyrelsen.se/blekinge/besoksmal/kulturmiljoer/solvesborgs-slottsruin.html,,https://maps.app.goo.gl/GD5QCnYQ3WbNiTN59,56.05608099847926,14.59405068652702,
Söråkers herrgård,sorakers-herrgard,Söråker Manor,Medelpad,Manor,Food & Drink|Weddings,,,,Johan Carl Kempe,19th Century,1853,,,,https://www.sorakersherrgard.se/,,https://maps.app.goo.gl/BtHX2h2dpb1qwNvk9,62.50919108394054,17.503621957625434,
Taxinge slott,taxinge-slott,Taxinge Manor,Södermanland,Manor,Food & Drink|Weddings,,,Carl Christoffer Gjörwell d.y.,Anders von Wahrendorff,19th Century,1807,,Empire,https://sv.wikipedia.org/wiki/Taxinge-Näsby_slott,https://www.taxingeslott.se/,,https://maps.app.goo.gl/oZz5jEU94Qp4QnJj7,59.247061950327236,17.309156271097454,
Teleborgs slott,teleborgs-slott,Teleborg Manor,Småland,Manor,Food & Drink|Weddings|Accommodation,,,Lindvall & Boklund (August Lindvall and Harald Boklund),Fredrik Bonde af Björnö,20th Century,1900,,Gothic Revival,https://sv.wikipedia.org/wiki/Teleborgs_slott,https://teleborgsslott.com/,,https://maps.app.goo.gl/jvJysQzk7Z93ffLu9,56.85716204820047,14.83434281528892,
Tessinska palatset,tessinska-palatset,Tessin Palace,Uppland,Palace,History & Culture,Sightseeing,,Nicodemus Tessin d.y.,,17th Century,1694,,Baroque,https://sv.wikipedia.org/wiki/Tessinska_palatset,http://www.lansstyrelsen.se/stockholm/Sv/om-lansstyrelsen/landshovding-och-lansledning/Pages/tessinska-palatset.aspx,,https://maps.app.goo.gl/5LtW9PweePJzwu6T9,59.32595515489467,18.07276431146168,
Thoresta herrgård,thoresta-herrgard,Thoresta Manor,Uppland,Manor,Food & Drink|Weddings,,,,Christer Posse,18th Century,1780,1835,,https://sv.wikipedia.org/wiki/Toresta,https://thoresta.se/,,https://maps.app.goo.gl/iHLPpDLD8txtzEqn6,59.52385581569657,17.565908326902953,
Thorskogs slott,thorskogs-slott,Thorskog Manor,Bohuslän,Manor,Food & Drink|Weddings|Accommodation,,,Carl Fahlström,Petter Larsson,19th Century,1892,,Neo-Renaissance,https://sv.wikipedia.org/wiki/Thorskog,https://www.thorskogsslott.se/,,https://maps.app.goo.gl/pXMTQPtm8u911nwx7,58.03355051574307,12.136467596039985,
Tidö slott,tido-slott,Tidö Castle,Västmanland,Castle,Sports & Recreation|History & Culture,,,"Simon de la Vallée and Nicodemus Tessin d.ä. (brought in toward completion); Heinrich Blume, stonemason (portals)",,17th Century,1625,,Dutch Renaissance,https://sv.wikipedia.org/wiki/Tidö_slott,http://tidoslott.se/,,https://maps.app.goo.gl/CNLj2z6ZEtgojLvz9,59.50572773987222,16.478256384489228,
Tista slott,tista-slott,Tista Manor,Södermanland,Manor,Sports & Recreation,,,Fredrik Wilhelm Hoppe; Isak Gustaf Clason and Gjörwell (interior remodel),Fredrik Bengt Rosenhane,18th Century,1766,,Neoclassical,https://sv.wikipedia.org/wiki/Tistads_slott,https://www.tista.se/,,https://maps.app.goo.gl/tmoaTXt2owEQrr77A,58.82416597217877,16.891615098091258,
Tjolöholms slott,tjoloholms-slott,Tjolöholm Manor,Halland,Manor,Food & Drink|Weddings|Accommodation|History & Culture,,,Lars Israel Wahlman,James and Blanche Dickson,20th Century,1898,,Tudor Revival,https://sv.wikipedia.org/wiki/Tjolöholms_slott,https://www.tjoloholm.se/,,https://maps.app.goo.gl/QmrDZpvay5Y45KQb8,57.398640382806995,12.103088655527435,
Tofta herrgård,tofta-herrgard,Tofta Manor,Bohuslän,Manor,Food & Drink|Accommodation,,,,Christian Helmich Åkerman,18th Century,1782,,Baroque,https://sv.wikipedia.org/wiki/Tofta_herrgård,https://www.toftaherrgard.se/,,https://maps.app.goo.gl/DuYFifKWeTtzgnXg7,57.86509872232452,11.709857446992917,
Toftaholm herrgård,toftaholm-herrgard,Toftaholm Manor,Småland,Manor,Food & Drink|Weddings|Accommodation|Spa & Wellness,,,,,19th Century,1871,,,https://sv.wikipedia.org/wiki/Toftaholm,https://www.toftaholm.se/,,https://maps.app.goo.gl/MXGwTwXEoszmniSb9,57.02823850317476,14.01342445758889,
Tokeryds herrgård,tokeryds-herrgard,Tokeryd Manor,Småland,Manor,Weddings,,,,Built as a private residence,19th Century,1823,,,,https://tokerydsherrgard.se/,,https://maps.app.goo.gl/F1EFYpyTVeY3edxp9,57.81834429951577,14.108619099915254,
Torpa stenhus,torpa-stenhus,Torpa Castle,Västergötland,Castle,History & Culture,,,,Arvid Knutsson,15th Century,1470,1570,Renaissance,https://sv.wikipedia.org/wiki/Torpa_stenhus,http://www.torpastenhus.se/,,https://maps.app.goo.gl/TK9GKb6aCv9pTaKq8,57.650189505590625,13.279642691963922,
Torpshammars herrgård,torpshammars-herrgard,Torpshammar Manor,Medelpad,Manor,Weddings,,,,Peder Gulbrandsen,20th Century,1908,,,,https://www.torpshammar.com/,,https://maps.app.goo.gl/Yr27m85eiKgxwwX57,62.471718471438265,16.33144401341215,
Torreby slott,torreby-slott,Torreby Manor,Bohuslän,Manor,Accommodation,,,Adolf Emil Melander,Nils Georg Sörensen,19th Century,1887,,Gothic Revival,,https://festningshotellene.no/torreby-slott/#,,https://maps.app.goo.gl/4EztonzoeNnDQBDk7,58.44171720981526,11.598675299934536,
Torups slott,torup-slott,Torup Castle,Skåne,Castle,Weddings,,,,Görvel Fadersdotter Sparre,17th Century,1537,1602,Renaissance,https://sv.wikipedia.org/wiki/Torups_slott,https://malmo.se/Uppleva-och-gora/Natur-och-parker/Bokskogen-i-Torup/Torups-slott-och-slottspark/Slottspark-och-tradgard/Vigsel-i-Torups-slottspark.html,,https://maps.app.goo.gl/7HyvMpXn1duLkxe78,55.56534930859524,13.208875355420536,
Tosterups slott,tosterups-slott,Tosterup Castle,Skåne,Castle,Conferences & Events,Cider Tasting,,,Tyge Axelsen Brahe,18th Century,1500,1760,,https://sv.wikipedia.org/wiki/Tosterups_slott,http://www.tosterup.se/,,https://maps.app.goo.gl/LSazSdvEHjrjDWgt6,55.48012747249051,13.986519768907275,
Trolle-Ljungby slott,trolle-ljungby-slott,Trolle-Ljungby Manor,Skåne,Manor,Sports & Recreation,Hunting,Shop,,Knud Gyldenstierna,17th Century,1629,,Northern Renaissance,https://sv.wikipedia.org/wiki/Trolle_Ljungby_slott,https://www.trolleljungby.com/viltboden/,,https://maps.app.goo.gl/oHnhWJwz1RJ5UDqf8,56.02283090377264,14.36748590882075,
Trollenäs slott,trollenas-slott,Trollenäs Manor,Skåne,Manor,Weddings|Sports & Recreation,,,Ferdinand Meldahl (remodel),Nils and Anna Trolle,19th Century,1380,1890,French Renaissance Revival,https://sv.wikipedia.org/wiki/Trollenäs_slott,https://www.trollenasslott.se/,,https://maps.app.goo.gl/4QmgUaxBpkGmmCXn6,55.866017396174,13.244652084273966,
Tullgarns slott,tullgarns-slott,Tullgarn Palace,Södermanland,Palace,History & Culture,,,Joseph Gabriel Destain,Later remodeled under Fredrik Adolf,18th Century,1720,,Baroque,https://sv.wikipedia.org/wiki/Tullgarns_slott,https://www.kungligaslotten.se/vara-besoksmal/tullgarns-slott.html,,https://maps.app.goo.gl/sm474qhJpNo3NtnP7,58.950247914425994,17.584597528636305,
Tyresö slott,tyreso-slott,Tyresö Castle,Södermanland,Castle,History & Culture,,,Isak Gustaf Clason (remodel),,17th Century,1630,1892,National Romantic,https://sv.wikipedia.org/wiki/Tyresö_slott,https://www.nordiskamuseet.se/slott-gardar/tyreso-slott,,https://maps.app.goo.gl/HFTyz2ZxXHK9qND66,59.23570057753455,18.3048651441057,
Ulfshyttans herrgård,ulfshyttans-herrgard,Ulfshyttan Manor,Dalarna,Manor,Accommodation,,,,Gerhard Arfwedson,19th Century,1890,,,https://sv.wikipedia.org/wiki/Ulfshyttans_herrgård,https://www.ulfshyttan.se/sv/,,https://maps.app.goo.gl/uBvdZcRxnRSzN3qF8,60.30658999387429,15.384792228780741,
Ulfstorps säteri,ulfstorps-sateri,Ulfstorp Manor,Västergötland,Manor,Sports & Recreation,Hunting,,,Johan Martin Liedberg,19th Century,1828,,,,https://ulfstorp.se/,,https://maps.app.goo.gl/SxB9M1vq4WgUdgQn8,58.324923727853005,12.81912788645692,
Ulfsunda slott,ulfsunda-slott,Ulfsunda Manor,Uppland,Manor,Food & Drink|Weddings|Accommodation|Spa & Wellness,,,,Lennart Torstensson,19th Century,1644,1830,Dutch Renaissance,https://sv.wikipedia.org/wiki/Ulvsunda_slott,https://www.ulfsundaslott.se/,,https://maps.app.goo.gl/JsxyxC7bAz3QBsXr9,59.34098568331507,17.96403045760209,
Ulriksdals slott,ulriksdals-slott,Ulriksdal Palace,Uppland,Palace,History & Culture,,,Hans Jakob Kristler; Carl Hårleman; Nicodemus Tessin d.ä.; Nicodemus Tessin d.y.,,17th Century,1642,1727,Baroque,https://sv.wikipedia.org/wiki/Ulriksdals_slott,https://www.kungligaslotten.se/vara-besoksmal/ulriksdals-slott.html,,https://maps.app.goo.gl/15LevyT35rJX9JYk8,59.390470524144774,18.017017581398154,
Ulvhälls herrgård,ulvhalls-herrgard,Ulvhäll Manor,Södermanland,Manor,Weddings|Accommodation|Sports & Recreation,,,,,18th Century,1790,,Gustavian,https://sv.wikipedia.org/wiki/Ulvhäll,https://ulvhall.se/,,https://maps.app.goo.gl/6Eq8qBpzg8tDZaWD9,59.362783952031066,17.04247945573087,
Ulvsby herrgård,ulvsby-herrgard,Ulvsby Manor,Värmland,Manor,Food & Drink|Accommodation|Spa & Wellness,,,,Anders Wahlstrand,19th Century,1850,,,https://sv.wikipedia.org/wiki/Ulvsby_herrgård,https://ulvsbyherrgard.se/,,https://maps.app.goo.gl/2pxNPCuqEz6aZh9d7,59.866151915416474,13.136985028792415,
Uppsala slott,uppsala-slott,Uppsala Castle,Uppland,Castle,Weddings|History & Culture,,,"Henrik von Cöllen, Påvel Schütz, Franciscus Pahr, Antonius Watz (original); Carl Hårleman (rebuild after fire)",,16th Century,1549,1749,Neoclassical,https://sv.wikipedia.org/wiki/Uppsala_slott,https://www.visituppsalaslott.se/,,https://maps.app.goo.gl/T8fJxTxcUVMtG2XN7,59.85334818590093,17.635616298001885,
Vadstena slott,vadstena-slott,Vadstena Castle,Östergötland,Castle,Weddings|History & Culture,,,Joakim Bulgrin (fortress); Arendt de Roy (remodel); Jean de la Vallée (dome),,16th Century,1545,,Renaissance,https://sv.wikipedia.org/wiki/Vadstena_slott,http://www.vadstenaslott.com/,,https://maps.app.goo.gl/gNg1HVqcqonYUsTB7,58.44604158953799,14.883552169081234,
van der Nootska palatset,van-der-nootska-palatset,van der Nootska Palace,Södermanland,Palace,Food & Drink|Weddings,,,Jean de la Vallée; Agi Lindegren with Kasper Salin and Isak Gustaf Clason (restoration),Thomas van der Noot,17th Century,1670,1903,Baroque,https://sv.wikipedia.org/wiki/Van_der_Nootska_palatset,https://vandernootska.se/,,https://maps.app.goo.gl/r2vNUwby62zmXLCb9,59.31803132724633,18.066211357622894,
Varbergs fästning,varbergs-fastning,Varberg Fortress,Halland,Fortress,History & Culture,,,,Danish Count Jacob Nielsen; later Danish King Frederick II,17th Century,1287,1572,,https://sv.wikipedia.org/wiki/Varbergs_fästning,https://www.museumhalland.se/varbergs-fastning/,,https://maps.app.goo.gl/HxFmnKrLbcM5HjkE6,57.105979974057476,12.239911197838003,
Vaxholms fästning,vaxholms-fastning,Vaxholm Fortress,Uppland,Fortress,History & Culture,,,"C.F. Meijer (rebuild, giving the fortress its current appearance)",Gustav Vasa,19th Century,1548,1833,,https://sv.wikipedia.org/wiki/Vaxholms_kastell,https://www.kastellet.com/?utm_medium=organic&utm_source=google-my-business&utm_campaign=sv-se-google.my.business.kastellet-vaxholms.kastell-stockholm-awareness,,https://maps.app.goo.gl/jsj5xB2JgjJLk2kg9,59.40294039378325,18.35958195749969,
Wenngarns slott,wenngarns-slott,Venngarn Castle,Uppland,Castle,Food & Drink,,,Jean de la Vallée (rebuild),Duke Magnus of Sachsen-Lauenburg (earlier rebuild); Magnus Gabriel De la Gardie,17th Century,1160,1653,Baroque,https://sv.wikipedia.org/wiki/Venngarns_slott,https://www.wenngarn.se/,,https://maps.app.goo.gl/XugeJFobbN8iiHScA,59.64867453031202,17.718979913333932,
Vibyholms slott,vibyholms-slott,Vibyholm Manor,Södermanland,Manor,Sports & Recreation,,,Caspar van Panten; Carl Christoffer Gjörwell (later exterior work),Queen Kristina (Duke Karl's consort); Gustaf Bonde (rebuild),18th Century,1622,1736,Dutch Renaissance,https://sv.wikipedia.org/wiki/Vibyholms_slott,http://www.vibyholm.se,,https://maps.app.goo.gl/wXfwcTw79ra39ZKdA,58.991985530384575,16.863718208841032,
Vidbynäs gård,vidbynas-gard,Vidbynäs Manor,Södermanland,Manor,Weddings,,,,Olov Olivestjerna,18th Century,1711,1840,,,https://vidbynasgard.se/,,https://maps.app.goo.gl/6eoWjxNxrdwzSq428,59.201387303926374,17.43983001109319,
Vinsarps säteri,vinsarps-sateri,Vinsarp Manor,Västergötland,Manor,Sports & Recreation,,,,Karl Bengtsson,15th Century,1488,,,https://sv.wikipedia.org/wiki/Vinsarp,http://www.vinsarp.se/,,https://maps.app.goo.gl/uromG4nCfbQTzRsa7,57.90014936078038,13.52683069010086,
von Echstedtska gården,von-echstedtska-garden,von Echstedtska Manor,Värmland,Manor,History & Culture,,,,Bengt von Echstedt,18th Century,1762,,Rococo,https://sv.wikipedia.org/wiki/Von_Echstedtska_gården,https://varmlandsmuseum.se/vonechstedtska/,,https://maps.app.goo.gl/FcUxrr8qCbMtr3fu5,59.22795792961153,12.731348915263542,
Voxna herrgård,voxnabruk-herrgard,Voxnabruk Manor,Hälsingland,Manor,Food & Drink,,,Probably led by Lars Rehnvall (no formal architect),Jürgen Christoffer Müller,18th Century,1791,,Rococo,https://sv.wikipedia.org/wiki/Voxna_herrgård,https://voxnaherrgard.se/,,https://maps.app.goo.gl/mX5EDjTmrbSMBRTT7,61.366772972321115,15.50855721343904,
Vrams Gunnarstorps slott,vrams-gunnarstorps-slott,Vrams Gunnarstorp Manor,Skåne,Manor,Weddings,,,Gottlieb Bindesbøll (restoration),Jørgen Vind and Ingeborg Ulfstand; later restored for Rudolf Tornérhjelm,17th Century,1633,1854,Northern Renaissance,https://sv.wikipedia.org/wiki/Vrams_Gunnarstorps_slott,https://www.wramsgunnarstorp.com/,,https://maps.app.goo.gl/SapEQc3RkqF3yxaZ6,56.10347600858116,12.968842959679431,
Västanå slott,vastana-slott,Västanå Manor,Östergötland,Manor,Food & Drink|Accommodation|Sports & Recreation,,,Window surrounds attributed to Johan Johansson Werner; decorative gables possibly by sculptor Christian Julius Döteber,Svante Bielke,17th Century,1600,,Renaissance,https://sv.wikipedia.org/wiki/Västanå_slott,https://www.vastanaslott.se/,,https://maps.app.goo.gl/Jjz8YvNK3TrZpety7,57.9901741092269,14.421304444111785,
Västerås slott,vasteras-slott,Västerås Castle,Västmanland,Castle,Food & Drink,,,Mathias Spihler (renovation); Carl Hårleman (rebuild after fire),,16th Century,1540,1740,,https://sv.wikipedia.org/wiki/Västerås_slott,https://vasteras-slott.se/,,https://maps.app.goo.gl/BvL17tzxZ3DSLemb9,59.60652366822899,16.54444821333141,
Waldemarsudde,waldemarsudde,Waldemarsudde Palace,Uppland,Palace,History & Culture,,,Ferdinand Boberg (main building; gallery added later),Prince Eugen,20th Century,1903,1913,,https://sv.wikipedia.org/wiki/Waldemarsudde,https://waldemarsudde.se,,https://maps.app.goo.gl/DJSNmX6s4rMHTzYy8,59.32007017195729,18.113737372943284,
Wanbo herrgård,wanbo-herrgard,Wanbo Manor,Dalarna,Manor,Food & Drink|Accommodation|Spa & Wellness,,,,,19th Century,1725,1820,,,https://www.wanbo.se,,https://maps.app.goo.gl/9FY5uopekFBLWhXQ9,60.11752286227642,15.484456572927542,
Wanås slott,wanas-slott,Wanås Manor,Skåne,Manor,Food & Drink|Weddings|Accommodation|Sports & Recreation,,,"Henri Glaesel (restoration, added stepped gables and a saddle roof)",Sten Bille; later Betty Jennings,16th Century,1566,1904,Renaissance,https://sv.wikipedia.org/wiki/Vanås_slott,https://www.wanas.se/,,https://maps.app.goo.gl/Kbq6RCyR31BKY2Uq5,56.186100320118875,14.045629203342575,
Wedevåg herrgård,wedevag-herrgard,Wedevåg Manor,Närke,Manor,Food & Drink|Accommodation|Spa & Wellness,,,,,18th Century,1750,,Gustavian,,https://wedevagsherrgard.se,,https://maps.app.goo.gl/yrkdiQFT37RYqEkNA,59.52652556410398,15.27950389991068,
Wiks slott,wiks-slott,Wik Castle,Uppland,Castle,Food & Drink|Weddings|History & Culture,,,Fredrik Wilhelm Scholander (renovation),Gustav Horn and Sigrid Bielke (earlier renovation),17th Century,1470,1650,Renaissance,https://sv.wikipedia.org/wiki/Viks_slott,http://www.wiksslott.se/,,https://maps.app.goo.gl/sp6qYirkxj7GL8Mh7,59.73632445309357,17.461738597994767,
Wirsbo herrgård,wirsbo-herrgard,Wirsbo Manor,Västmanland,Manor,Accommodation,,,Lars Johan Lehming (rebuild),Herman Lagercrantz; Lars Johan Nilsson,20th Century,1690,1918,National Romantic,https://sv.wikipedia.org/wiki/Wirsbo_herrgård,https://wirsboherrgard.se/,,https://maps.app.goo.gl/G7kZsQn5Ad2Eyg9x9,59.867149912096615,16.051053011566324,
Wrangelska palatset,wrangelska-palatset,Wrangel Palace,Uppland,Palace,History & Culture,Sightseeing,,"Nicodemus Tessin d.ä. and Jean de la Vallée (rebuild, incorporating an earlier defensive tower)",Carl Gustaf Wrangel,17th Century,1530,1652,Baroque,https://www.sfv.se/vara-fastigheter/sverige/stockholms-lan/riddarholmen/wrangelska-palatset,https://www.sfv.se/vara-fastigheter/sverige/stockholms-lan/riddarholmen/wrangelska-palatset,,https://maps.app.goo.gl/zXVTwN8DxELmpXMu7,59.325134489019895,18.06299377098666,
Wapnö slott,wapno-slott,Wapnö,Halland,Manor,Food & Drink,,,Carl Wijnbladh,Georg Bogislaus Staël von Holstein,18th Century,1754,,Gustavian,https://sv.wikipedia.org/wiki/Vapnö_slott,https://www.wapnoslott.se,,https://maps.app.goo.gl/KqZ6a4YuCU54vurN8,56.713132121695956,12.84089777083163,
Yxtaholms slott,yxtaholms-slott,Yxtaholm Manor,Södermanland,Manor,Weddings|Conferences & Events,,,"Gustaf Nils Clodt, owner-builder (also architect of the stable)",Gustaf Nils Clodt,18th Century,1752,,Rococo,https://sv.wikipedia.org/wiki/Yxtaholm,http://yxtaholmsslott.se/,,https://maps.app.goo.gl/s3SEZTmaKxmyPMse6,59.08378617148546,16.627620180758257,
Ågerups säteri,agerups-sateri,Ågerup Manor,Skåne,Manor,Sports & Recreation,,,,Carl Gustav Piper,18th Century,1788,,,"https://sv.wikipedia.org/wiki/Ågerups_säteri,_Sjöbo_kommun",http://agerup.se,,https://maps.app.goo.gl/xvVhMysBRxZHEPHt6,55.55410968871702,13.58037971345731,
Åhus borgruin,ahus-borgruin,Åhus Castle Ruin,Skåne,Ruin,History & Culture,Sightseeing,,,Probably Danish King Knut den Store; later Archbishop of Lund (rebuilding),11th Century,1000,1488,,https://sv.wikipedia.org/wiki/Åhus_borg,https://www.lansstyrelsen.se/skane/besoksmal/kulturmiljoer/arkebiskopsborgen-aosehus.html,,https://maps.app.goo.gl/CDh1yj1JXkE7nVw17,55.92644371323661,14.304867040096958,
Åkerby herrgård,akerby-herrgard,Åkerby Manor,Närke,Manor,Food & Drink|Accommodation,,,,Kristina Karolina Olsson,19th Century,1856,,,,https://www.akerbyherrgard.se/,,https://maps.app.goo.gl/zFgeix9pdLrAreuG9,59.58291844596086,14.972589184555275,
Åkeshofs slott,akeshofs-slott,Åkeshof Manor,Uppland,Manor,Food & Drink|Weddings|Accommodation,,,Carl Hårleman (remodel),Gabriel Stierncrona (1723 remodel); David Stierncrona (1740s remodel),18th Century,1650,1740,Rococo,https://sv.wikipedia.org/wiki/Åkeshovs_slott,https://www.akeshofsslott.se,,https://maps.app.goo.gl/Sjrjkmsw42xwWmZc8,59.34086479659371,17.924642915254413,
Årsta slott,arsta-slott,Årsta Castle,Södermanland,Castle,Food & Drink|History & Culture,,,"Architect not confirmed, possibly Erik Dahlbergh; wings added later",Claes Hansson Bielkenstierna and Barbro Åkesdotter Natt och Dag,17th Century,1660,1912,Baroque,https://sv.wikipedia.org/wiki/Årsta_slott,https://www.haninge.se/uppleva-och-gora/besok-och-upplev-haninge/sevardheter/arsta-slott/,,https://maps.app.goo.gl/RtHeqZJdqHbDY5VdA,59.10775757764161,18.193880453776313,
Ängsö slott,angso-slott,Ängsö Castle,Västmanland,Castle,History & Culture,,,Carl Hårleman,,18th Century,1480,1740,Rococo,https://sv.wikipedia.org/wiki/Ängsö_slott,https://www.engso-events.com,,https://maps.app.goo.gl/jMiQScRpfFZqdjJa7,59.532935546500575,16.85724901189653,
Örbyhus slott,orbyhus-slott,Örbyhus Castle,Uppland,Castle,Food & Drink|Weddings|History & Culture,,,"Possibly Erik Dahlbergh (unconfirmed, rebuild); Simon de la Vallée (garden); Carl Christoffer Gjörwell d.y. (remodel)",,17th Century,1450,1660,Baroque,https://sv.wikipedia.org/wiki/Örbyhus_slott,https://www.orbyhusslott.se/,,https://maps.app.goo.gl/9bDTAouzpiU5VBjNA,60.20006512645621,17.709105140350662,
Örebro slott,orebro-slott,Örebro Castle,Närke,Castle,Food & Drink|History & Culture,,,Christoffer Pahr (rebuild); Thor Thorén (restoration),Hertig Karl,17th Century,1300,1573,Neo-Renaissance,https://sv.wikipedia.org/wiki/Örebro_slott,https://orebroslott.se,,https://maps.app.goo.gl/aocGjwdBsBrm49uQ8,59.27410753563102,15.215464655639149,
Örenäs slott (Maryhill Estate),orenas-slott-maryhill-estate,Örenäs (Maryhill Estate) Manor,Skåne,Manor,Food & Drink|Weddings|Accommodation,,,Fredrik Sundbärg and Harald Holmqvist,Carl Tranchell,20th Century,1914,,Baroque Revival,https://sv.wikipedia.org/wiki/Örenäs_slott,https://maryhillestate.com/,,https://maps.app.goo.gl/MSPzBEjnHoS4SDjs6,55.94031479046013,12.781270391117005,
Örtofta slott,ortofta-slott,Örtofta Castle,Skåne,Castle,Weddings|Sports & Recreation,,,Ferdinand Meldahl,,19th Century,1480,1857,French Renaissance Revival,https://sv.wikipedia.org/wiki/Örtofta_slott,https://ortoftaslott.se/,,https://maps.app.goo.gl/N2QDNHR7EnEhextt5,55.784984843832255,13.245350142328888,
Öster Malma,oster-malma,Öster Malma,Södermanland,Manor,Food & Drink|Weddings|Accommodation|Sports & Recreation,,,Jean de la Vallée,Wilhelm Böös Drakenhielm and Anna Maria Silfverstierna; Michael Cobisofsky,17th Century,1665,,Baroque,https://sv.wikipedia.org/wiki/Östermalma,https://www.ostermalma.se,,https://maps.app.goo.gl/4T1AiQhXyhP5t5pX8,58.95072276763089,17.158438943309765,
Österbybruks herrgård,osterbybruks-herrgard,Österbybruk Manor,Uppland,Manor,History & Culture,,,"Probably Elias Kessler, with Erik Palmstedt; Carl Hårleman (garden)",Jean Jaques De Geer,18th Century,1763,,Rococo,https://sv.wikipedia.org/wiki/Österbybruks_herrgård,http://www.osterbybruksherrgard.se/,,https://maps.app.goo.gl/64327jkHX2kSSYGX7,60.1937462964638,17.89928032500582,
Övedskloster,ovedskloster,Övedskloster,Skåne,Manor,Weddings|Sports & Recreation,,,Carl Hårleman (design); Jean Eric Rehn (execution),"Hans Ramel (""Bygge-Hans"")",18th Century,1763,,Rococo,https://sv.wikipedia.org/wiki/Övedskloster,https://www.ovedskloster.com,,https://maps.app.goo.gl/JKnEnrhEhC82CiT79,55.686474978928395,13.635750697755295,
Övralid,ovralid,Övralid,Östergötland,Manor,History & Culture,,,"Verner von Heidenstam (design); Edvin Egir, master builder (execution)",Verner von Heidenstam,20th Century,1923,,Neoclassical,https://sv.wikipedia.org/wiki/Övralid,http://ovralid.se/,,https://maps.app.goo.gl/TxtaMcXV5vt8J2nN9,58.607752150952166,14.944219628828579,